[
    {
        "name": "강남고려병원",
        "hurl": "",
        "lat": 37.4856181153,
        "lon": 126.956780912,
        "highblood": 0,
        "lungCa": 0,
        "stomachCa": 0,
        "liverCa": 0,
        "bowelCa": 0,
        "breastCa": 0,
        "cesarean": 0,
        "antibiotics": 3,
        "injection": 3,
        "diabetes": 0,
        "asthma": 0,
        "dialysis": 0
    },
    {
        "name": "에이치플러스 양지병원",
        "hurl": "http://www.newyjh.com",
        "lat": 37.4843705934,
        "lon": 126.932567406,
        "highblood": 0,
        "lungCa": 0,
        "stomachCa": 5,
        "liverCa": 0,
        "bowelCa": 1,
        "breastCa": 0,
        "cesarean": 0,
        "antibiotics": 3,
        "injection": 2,
        "diabetes": 0,
        "asthma": 0,
        "dialysis": 2
    },
    {
        "name": "강남초이스병원",
        "hurl": "",
        "lat": 37.4813228643,
        "lon": 126.9495972,
        "highblood": 0,
        "lungCa": 0,
        "stomachCa": 0,
        "liverCa": 0,
        "bowelCa": 0,
        "breastCa": 0,
        "cesarean": 0,
        "antibiotics": 0,
        "injection": 1,
        "diabetes": 0,
        "asthma": 0,
        "dialysis": 0
    },
    {
        "name": "미래드림여성병원",
        "hurl": "http://www.miraedream.org/",
        "lat": 37.4820432563,
        "lon": 126.948633423,
        "highblood": 0,
        "lungCa": 0,
        "stomachCa": 0,
        "liverCa": 0,
        "bowelCa": 0,
        "breastCa": 0,
        "cesarean": 5,
        "antibiotics": 0,
        "injection": 4,
        "diabetes": 0,
        "asthma": 0,
        "dialysis": 0
    },
    {
        "name": "서울본병원",
        "hurl": "http://www.www.seoulbone.com/",
        "lat": 37.4815853446,
        "lon": 126.91170774,
        "highblood": 0,
        "lungCa": 0,
        "stomachCa": 0,
        "liverCa": 0,
        "bowelCa": 0,
        "breastCa": 0,
        "cesarean": 0,
        "antibiotics": 2,
        "injection": 5,
        "diabetes": 0,
        "asthma": 0,
        "dialysis": 0
    },
    {
        "name": "심정병원",
        "hurl": "",
        "lat": 37.4824271,
        "lon": 126.915604,
        "highblood": 0,
        "lungCa": 0,
        "stomachCa": 0,
        "liverCa": 0,
        "bowelCa": 0,
        "breastCa": 0,
        "cesarean": 0,
        "antibiotics": 0,
        "injection": 3,
        "diabetes": 0,
        "asthma": 0,
        "dialysis": 0
    },
    {
        "name": "연세건우병원",
        "hurl": "http://www.healthyfriend.co.kr",
        "lat": 37.4810353644,
        "lon": 126.951564655,
        "highblood": 0,
        "lungCa": 0,
        "stomachCa": 0,
        "liverCa": 0,
        "bowelCa": 0,
        "breastCa": 0,
        "cesarean": 0,
        "antibiotics": 0,
        "injection": 2,
        "diabetes": 0,
        "asthma": 0,
        "dialysis": 0
    },
    {
        "name": "조인트힐병원",
        "hurl": "",
        "lat": 37.4737291579,
        "lon": 126.91754584,
        "highblood": 0,
        "lungCa": 0,
        "stomachCa": 0,
        "liverCa": 0,
        "bowelCa": 0,
        "breastCa": 0,
        "cesarean": 0,
        "antibiotics": 0,
        "injection": 3,
        "diabetes": 0,
        "asthma": 0,
        "dialysis": 0
    }
][
    {
        "name": "척편한병원",
        "hurl": "http://cphh.co.kr",
        "lat": 37.4825758,
        "lon": 126.9302568,
        "highblood": 0,
        "lungCa": 0,
        "stomachCa": 0,
        "liverCa": 0,
        "bowelCa": 0,
        "breastCa": 0,
        "cesarean": 0,
        "antibiotics": 0,
        "injection": 4,
        "diabetes": 0,
        "asthma": 0,
        "dialysis": 0
    },
    {
        "name": "강남수요양병원",
        "hurl": "",
        "lat": 37.4851766668,
        "lon": 126.93044554,
        "highblood": 0,
        "lungCa": 0,
        "stomachCa": 0,
        "liverCa": 0,
        "bowelCa": 0,
        "breastCa": 0,
        "cesarean": 0,
        "antibiotics": 0,
        "injection": 0,
        "diabetes": 0,
        "asthma": 0,
        "dialysis": 0
    },
    {
        "name": "은천요양병원",
        "hurl": "http://echospital.co.kr",
        "lat": 37.4862853423,
        "lon": 126.941199629,
        "highblood": 0,
        "lungCa": 0,
        "stomachCa": 0,
        "liverCa": 0,
        "bowelCa": 0,
        "breastCa": 0,
        "cesarean": 0,
        "antibiotics": 0,
        "injection": 0,
        "diabetes": 0,
        "asthma": 0,
        "dialysis": 0
    },
    {
        "name": "365밝은안과의원",
        "hurl": "http://www.365goodeye.com",
        "lat": 37.4855079437,
        "lon": 126.929947735,
        "highblood": 0,
        "lungCa": 0,
        "stomachCa": 0,
        "liverCa": 0,
        "bowelCa": 0,
        "breastCa": 0,
        "cesarean": 0,
        "antibiotics": 0,
        "injection": 1,
        "diabetes": 0,
        "asthma": 0,
        "dialysis": 0
    },
    {
        "name": "BJ라임의원",
        "hurl": "",
        "lat": 37.4743763627,
        "lon": 126.981432504,
        "highblood": 0,
        "lungCa": 0,
        "stomachCa": 0,
        "liverCa": 0,
        "bowelCa": 0,
        "breastCa": 0,
        "cesarean": 0,
        "antibiotics": 0,
        "injection": 4,
        "diabetes": 0,
        "asthma": 0,
        "dialysis": 0
    },
    {
        "name": "DR.문이비인후과의원",
        "hurl": "",
        "lat": 37.4871242817,
        "lon": 126.947132895,
        "highblood": 0,
        "lungCa": 0,
        "stomachCa": 0,
        "liverCa": 0,
        "bowelCa": 0,
        "breastCa": 0,
        "cesarean": 0,
        "antibiotics": 3,
        "injection": 2,
        "diabetes": 0,
        "asthma": 0,
        "dialysis": 0
    },
    {
        "name": "가람신경정신과의원",
        "hurl": "http://www.garam-clinic.com/main/main.php",
        "lat": 37.4823954438,
        "lon": 126.90156277,
        "highblood": 0,
        "lungCa": 0,
        "stomachCa": 0,
        "liverCa": 0,
        "bowelCa": 0,
        "breastCa": 0,
        "cesarean": 0,
        "antibiotics": 0,
        "injection": 0,
        "diabetes": 0,
        "asthma": 0,
        "dialysis": 0
    },
    {
        "name": "가연관악산부인과의원",
        "hurl": "http://www.e-gayeon.com",
        "lat": 37.4804308447,
        "lon": 126.953961919,
        "highblood": 0,
        "lungCa": 0,
        "stomachCa": 0,
        "liverCa": 0,
        "bowelCa": 0,
        "breastCa": 0,
        "cesarean": 3,
        "antibiotics": 1,
        "injection": 1,
        "diabetes": 0,
        "asthma": 0,
        "dialysis": 0
    },
    {
        "name": "강경훈소아과의원",
        "hurl": "",
        "lat": 37.4715911733,
        "lon": 126.933442566,
        "highblood": 0,
        "lungCa": 0,
        "stomachCa": 0,
        "liverCa": 0,
        "bowelCa": 0,
        "breastCa": 0,
        "cesarean": 0,
        "antibiotics": 1,
        "injection": 1,
        "diabetes": 0,
        "asthma": 0,
        "dialysis": 0
    }
][
    {
        "name": "강남밝은빛안과의원",
        "hurl": "",
        "lat": 37.4855315106,
        "lon": 126.956486986,
        "highblood": 0,
        "lungCa": 0,
        "stomachCa": 0,
        "liverCa": 0,
        "bowelCa": 0,
        "breastCa": 0,
        "cesarean": 0,
        "antibiotics": 0,
        "injection": 2,
        "diabetes": 0,
        "asthma": 0,
        "dialysis": 0
    },
    {
        "name": "강성호내과의원",
        "hurl": "",
        "lat": 37.4853981214,
        "lon": 126.956378518,
        "highblood": 0,
        "lungCa": 0,
        "stomachCa": 0,
        "liverCa": 0,
        "bowelCa": 0,
        "breastCa": 0,
        "cesarean": 0,
        "antibiotics": 0,
        "injection": 5,
        "diabetes": 0,
        "asthma": 0,
        "dialysis": 0
    },
    {
        "name": "강신경정신과의원",
        "hurl": "",
        "lat": 37.4851478,
        "lon": 126.9299784,
        "highblood": 0,
        "lungCa": 0,
        "stomachCa": 0,
        "liverCa": 0,
        "bowelCa": 0,
        "breastCa": 0,
        "cesarean": 0,
        "antibiotics": 0,
        "injection": 0,
        "diabetes": 0,
        "asthma": 0,
        "dialysis": 0
    },
    {
        "name": "강인구내과의원",
        "hurl": "",
        "lat": 37.4729586183,
        "lon": 126.918591257,
        "highblood": 0,
        "lungCa": 0,
        "stomachCa": 0,
        "liverCa": 0,
        "bowelCa": 0,
        "breastCa": 0,
        "cesarean": 0,
        "antibiotics": 3,
        "injection": 2,
        "diabetes": 0,
        "asthma": 0,
        "dialysis": 0
    },
    {
        "name": "강피부과의원",
        "hurl": "http://",
        "lat": 37.4869982959,
        "lon": 126.947481239,
        "highblood": 0,
        "lungCa": 0,
        "stomachCa": 0,
        "liverCa": 0,
        "bowelCa": 0,
        "breastCa": 0,
        "cesarean": 0,
        "antibiotics": 0,
        "injection": 2,
        "diabetes": 0,
        "asthma": 0,
        "dialysis": 0
    },
    {
        "name": "강한신림피부과의원",
        "hurl": "",
        "lat": 37.4845596848,
        "lon": 126.929279268,
        "highblood": 0,
        "lungCa": 0,
        "stomachCa": 0,
        "liverCa": 0,
        "bowelCa": 0,
        "breastCa": 0,
        "cesarean": 0,
        "antibiotics": 0,
        "injection": 3,
        "diabetes": 0,
        "asthma": 0,
        "dialysis": 0
    },
    {
        "name": "고려에이스비뇨기과의원",
        "hurl": "http://www.urokorea.com/",
        "lat": 37.4842270477,
        "lon": 126.927520277,
        "highblood": 0,
        "lungCa": 0,
        "stomachCa": 0,
        "liverCa": 0,
        "bowelCa": 0,
        "breastCa": 0,
        "cesarean": 0,
        "antibiotics": 0,
        "injection": 4,
        "diabetes": 0,
        "asthma": 0,
        "dialysis": 0
    },
    {
        "name": "고려정형외과의원",
        "hurl": "http://bonebone.co.kr/",
        "lat": 37.4759416,
        "lon": 126.9656738,
        "highblood": 0,
        "lungCa": 0,
        "stomachCa": 0,
        "liverCa": 0,
        "bowelCa": 0,
        "breastCa": 0,
        "cesarean": 0,
        "antibiotics": 0,
        "injection": 4,
        "diabetes": 0,
        "asthma": 0,
        "dialysis": 0
    },
    {
        "name": "고운얼굴성형외과의원",
        "hurl": "http://www.fine-face.com",
        "lat": 37.479738442,
        "lon": 126.952876977,
        "highblood": 0,
        "lungCa": 0,
        "stomachCa": 0,
        "liverCa": 0,
        "bowelCa": 0,
        "breastCa": 0,
        "cesarean": 0,
        "antibiotics": 0,
        "injection": 0,
        "diabetes": 0,
        "asthma": 0,
        "dialysis": 0
    }
][
    {
        "name": "곽정형외과의원",
        "hurl": "",
        "lat": 37.4817281614,
        "lon": 126.900921453,
        "highblood": 0,
        "lungCa": 0,
        "stomachCa": 0,
        "liverCa": 0,
        "bowelCa": 0,
        "breastCa": 0,
        "cesarean": 0,
        "antibiotics": 0,
        "injection": 5,
        "diabetes": 0,
        "asthma": 0,
        "dialysis": 0
    },
    {
        "name": "관악성모의원",
        "hurl": "",
        "lat": 37.4797986136,
        "lon": 126.942281035,
        "highblood": 0,
        "lungCa": 0,
        "stomachCa": 0,
        "liverCa": 0,
        "bowelCa": 0,
        "breastCa": 0,
        "cesarean": 0,
        "antibiotics": 5,
        "injection": 4,
        "diabetes": "양호",
        "asthma": 0,
        "dialysis": 0
    },
    {
        "name": "관악수내과의원",
        "hurl": "http://www.soohand.com",
        "lat": 37.4814759937,
        "lon": 126.953907009,
        "highblood": 0,
        "lungCa": 0,
        "stomachCa": 0,
        "liverCa": 0,
        "bowelCa": 0,
        "breastCa": 0,
        "cesarean": 0,
        "antibiotics": 1,
        "injection": 2,
        "diabetes": "양호",
        "asthma": 0,
        "dialysis": 0
    },
    {
        "name": "관악연세가정의원",
        "hurl": "",
        "lat": 37.473864817,
        "lon": 126.966197981,
        "highblood": "양호",
        "lungCa": 0,
        "stomachCa": 0,
        "liverCa": 0,
        "bowelCa": 0,
        "breastCa": 0,
        "cesarean": 0,
        "antibiotics": 1,
        "injection": 4,
        "diabetes": 0,
        "asthma": "양호",
        "dialysis": 0
    },
    {
        "name": "관악연세정형외과의원",
        "hurl": "http://",
        "lat": 37.4720889259,
        "lon": 126.934147541,
        "highblood": 0,
        "lungCa": 0,
        "stomachCa": 0,
        "liverCa": 0,
        "bowelCa": 0,
        "breastCa": 0,
        "cesarean": 0,
        "antibiotics": 1,
        "injection": 2,
        "diabetes": 0,
        "asthma": 0,
        "dialysis": 0
    },
    {
        "name": "관악오라클피부과의원",
        "hurl": "",
        "lat": 37.4843775401,
        "lon": 126.954678598,
        "highblood": 0,
        "lungCa": 0,
        "stomachCa": 0,
        "liverCa": 0,
        "bowelCa": 0,
        "breastCa": 0,
        "cesarean": 0,
        "antibiotics": 0,
        "injection": 3,
        "diabetes": 0,
        "asthma": 0,
        "dialysis": 0
    },
    {
        "name": "관악우태하피부과의원",
        "hurl": "",
        "lat": 37.4801941,
        "lon": 126.9529881,
        "highblood": 0,
        "lungCa": 0,
        "stomachCa": 0,
        "liverCa": 0,
        "bowelCa": 0,
        "breastCa": 0,
        "cesarean": 0,
        "antibiotics": 0,
        "injection": 2,
        "diabetes": 0,
        "asthma": 0,
        "dialysis": 0
    },
    {
        "name": "관악이비인후과의원",
        "hurl": "http://www.gwanakent.com",
        "lat": 37.4814759937,
        "lon": 126.953907009,
        "highblood": 0,
        "lungCa": 0,
        "stomachCa": 0,
        "liverCa": 0,
        "bowelCa": 0,
        "breastCa": 0,
        "cesarean": 0,
        "antibiotics": 2,
        "injection": 2,
        "diabetes": 0,
        "asthma": 0,
        "dialysis": 0
    },
    {
        "name": "관악정의원",
        "hurl": "",
        "lat": 37.4852196215,
        "lon": 126.913616562,
        "highblood": 0,
        "lungCa": 0,
        "stomachCa": 0,
        "liverCa": 0,
        "bowelCa": 0,
        "breastCa": 0,
        "cesarean": 0,
        "antibiotics": 0,
        "injection": 4,
        "diabetes": 0,
        "asthma": 0,
        "dialysis": 0
    }
][
    {
        "name": "관악플러스내과의원",
        "hurl": "",
        "lat": 37.4811734,
        "lon": 126.9130526,
        "highblood": 0,
        "lungCa": 0,
        "stomachCa": 0,
        "liverCa": 0,
        "bowelCa": 0,
        "breastCa": 0,
        "cesarean": 0,
        "antibiotics": 1,
        "injection": 2,
        "diabetes": 0,
        "asthma": 0,
        "dialysis": 2
    },
    {
        "name": "관악하나가정의학과의원",
        "hurl": "",
        "lat": 37.4791588776,
        "lon": 126.946053148,
        "highblood": "양호",
        "lungCa": 0,
        "stomachCa": 0,
        "liverCa": 0,
        "bowelCa": 0,
        "breastCa": 0,
        "cesarean": 0,
        "antibiotics": 3,
        "injection": 5,
        "diabetes": 0,
        "asthma": 0,
        "dialysis": 0
    },
    {
        "name": "구로마취통증의학과의원",
        "hurl": "http://www.guroclinic.net",
        "lat": 37.4843105768,
        "lon": 126.903247201,
        "highblood": 0,
        "lungCa": 0,
        "stomachCa": 0,
        "liverCa": 0,
        "bowelCa": 0,
        "breastCa": 0,
        "cesarean": 0,
        "antibiotics": 0,
        "injection": 3,
        "diabetes": 0,
        "asthma": 0,
        "dialysis": 0
    },
    {
        "name": "굿모닝플러스의원",
        "hurl": "",
        "lat": 37.4712941508,
        "lon": 126.91946578,
        "highblood": 0,
        "lungCa": 0,
        "stomachCa": 0,
        "liverCa": 0,
        "bowelCa": 0,
        "breastCa": 0,
        "cesarean": 0,
        "antibiotics": 1,
        "injection": 3,
        "diabetes": 0,
        "asthma": "양호",
        "dialysis": 0
    },
    {
        "name": "그린소아과의원",
        "hurl": "",
        "lat": 37.4742374,
        "lon": 126.933712,
        "highblood": 0,
        "lungCa": 0,
        "stomachCa": 0,
        "liverCa": 0,
        "bowelCa": 0,
        "breastCa": 0,
        "cesarean": 0,
        "antibiotics": 0,
        "injection": 3,
        "diabetes": 0,
        "asthma": 0,
        "dialysis": 0
    },
    {
        "name": "길성의원",
        "hurl": "",
        "lat": 37.4794305602,
        "lon": 126.958376341,
        "highblood": 0,
        "lungCa": 0,
        "stomachCa": 0,
        "liverCa": 0,
        "bowelCa": 0,
        "breastCa": 0,
        "cesarean": 0,
        "antibiotics": 5,
        "injection": 5,
        "diabetes": 0,
        "asthma": 0,
        "dialysis": 0
    },
    {
        "name": "김상현이비인후과의원",
        "hurl": "",
        "lat": 37.4853401518,
        "lon": 126.955559943,
        "highblood": 0,
        "lungCa": 0,
        "stomachCa": 0,
        "liverCa": 0,
        "bowelCa": 0,
        "breastCa": 0,
        "cesarean": 0,
        "antibiotics": 1,
        "injection": 2,
        "diabetes": 0,
        "asthma": 0,
        "dialysis": 0
    },
    {
        "name": "김성무비뇨기과의원",
        "hurl": "http://",
        "lat": 37.4813424511,
        "lon": 126.953414142,
        "highblood": 0,
        "lungCa": 0,
        "stomachCa": 0,
        "liverCa": 0,
        "bowelCa": 0,
        "breastCa": 0,
        "cesarean": 0,
        "antibiotics": 0,
        "injection": 3,
        "diabetes": 0,
        "asthma": 0,
        "dialysis": 0
    },
    {
        "name": "김성훈가정의학과의원",
        "hurl": "",
        "lat": 37.4905026615,
        "lon": 126.92916059,
        "highblood": 0,
        "lungCa": 0,
        "stomachCa": 0,
        "liverCa": 0,
        "bowelCa": 0,
        "breastCa": 0,
        "cesarean": 0,
        "antibiotics": 0,
        "injection": 5,
        "diabetes": 0,
        "asthma": 0,
        "dialysis": 0
    },
    {
        "name": "김승원내과의원",
        "hurl": "",
        "lat": 37.4833789272,
        "lon": 126.953914885,
        "highblood": "양호",
        "lungCa": 0,
        "stomachCa": 0,
        "liverCa": 0,
        "bowelCa": 0,
        "breastCa": 0,
        "cesarean": 0,
        "antibiotics": 1,
        "injection": 1,
        "diabetes": "양호",
        "asthma": 0,
        "dialysis": 0
    }
][
    {
        "name": "김앤조내과의원",
        "hurl": "",
        "lat": 37.4738483,
        "lon": 126.9174854,
        "highblood": "양호",
        "lungCa": 0,
        "stomachCa": 0,
        "liverCa": 0,
        "bowelCa": 0,
        "breastCa": 0,
        "cesarean": 0,
        "antibiotics": 1,
        "injection": 4,
        "diabetes": 0,
        "asthma": 0,
        "dialysis": 0
    },
    {
        "name": "김영봉이비인후과의원",
        "hurl": "",
        "lat": 37.4711518227,
        "lon": 126.934053404,
        "highblood": 0,
        "lungCa": 0,
        "stomachCa": 0,
        "liverCa": 0,
        "bowelCa": 0,
        "breastCa": 0,
        "cesarean": 0,
        "antibiotics": 4,
        "injection": 1,
        "diabetes": 0,
        "asthma": 0,
        "dialysis": 0
    },
    {
        "name": "김재준피부과의원",
        "hurl": "",
        "lat": 37.4853401518,
        "lon": 126.955559943,
        "highblood": 0,
        "lungCa": 0,
        "stomachCa": 0,
        "liverCa": 0,
        "bowelCa": 0,
        "breastCa": 0,
        "cesarean": 0,
        "antibiotics": 0,
        "injection": 5,
        "diabetes": 0,
        "asthma": 0,
        "dialysis": 0
    },
    {
        "name": "김정화산부인과의원",
        "hurl": "",
        "lat": 37.4861404499,
        "lon": 126.947287362,
        "highblood": 0,
        "lungCa": 0,
        "stomachCa": 0,
        "liverCa": 0,
        "bowelCa": 0,
        "breastCa": 0,
        "cesarean": 0,
        "antibiotics": 0,
        "injection": 3,
        "diabetes": 0,
        "asthma": 0,
        "dialysis": 0
    },
    {
        "name": "김지한안과의원",
        "hurl": "",
        "lat": 37.4706759073,
        "lon": 126.933728252,
        "highblood": 0,
        "lungCa": 0,
        "stomachCa": 0,
        "liverCa": 0,
        "bowelCa": 0,
        "breastCa": 0,
        "cesarean": 0,
        "antibiotics": 0,
        "injection": 1,
        "diabetes": 0,
        "asthma": 0,
        "dialysis": 0
    },
    {
        "name": "김철신정형외과의원",
        "hurl": "",
        "lat": 37.4775117,
        "lon": 126.961647,
        "highblood": 0,
        "lungCa": 0,
        "stomachCa": 0,
        "liverCa": 0,
        "bowelCa": 0,
        "breastCa": 0,
        "cesarean": 0,
        "antibiotics": 0,
        "injection": 2,
        "diabetes": 0,
        "asthma": 0,
        "dialysis": 0
    },
    {
        "name": "김홍내과의원",
        "hurl": "",
        "lat": 37.4791087,
        "lon": 126.9319782,
        "highblood": 0,
        "lungCa": 0,
        "stomachCa": 0,
        "liverCa": 0,
        "bowelCa": 0,
        "breastCa": 0,
        "cesarean": 0,
        "antibiotics": 3,
        "injection": 5,
        "diabetes": 0,
        "asthma": 0,
        "dialysis": 0
    }
][
    {
        "name": "나눔정신건강의학과의원",
        "hurl": "",
        "lat": 37.480704569,
        "lon": 126.953495942,
        "highblood": 0,
        "lungCa": 0,
        "stomachCa": 0,
        "liverCa": 0,
        "bowelCa": 0,
        "breastCa": 0,
        "cesarean": 0,
        "antibiotics": 0,
        "injection": 0,
        "diabetes": 0,
        "asthma": 0,
        "dialysis": 0
    },
    {
        "name": "나을의원",
        "hurl": "",
        "lat": 37.4737298511,
        "lon": 126.918545201,
        "highblood": 0,
        "lungCa": 0,
        "stomachCa": 0,
        "liverCa": 0,
        "bowelCa": 0,
        "breastCa": 0,
        "cesarean": 0,
        "antibiotics": 0,
        "injection": 3,
        "diabetes": 0,
        "asthma": 0,
        "dialysis": 0
    },
    {
        "name": "낙성대연세재활의학과의원",
        "hurl": "",
        "lat": 37.4744921474,
        "lon": 126.967002623,
        "highblood": 0,
        "lungCa": 0,
        "stomachCa": 0,
        "liverCa": 0,
        "bowelCa": 0,
        "breastCa": 0,
        "cesarean": 0,
        "antibiotics": 1,
        "injection": 4,
        "diabetes": 0,
        "asthma": 0,
        "dialysis": 0
    },
    {
        "name": "난곡연세가정의원",
        "hurl": "",
        "lat": 37.4740652163,
        "lon": 126.91882068,
        "highblood": "양호",
        "lungCa": 0,
        "stomachCa": 0,
        "liverCa": 0,
        "bowelCa": 0,
        "breastCa": 0,
        "cesarean": 0,
        "antibiotics": 1,
        "injection": 3,
        "diabetes": 0,
        "asthma": 0,
        "dialysis": 0
    },
    {
        "name": "노영숙산부인과의원",
        "hurl": "",
        "lat": 37.4769075,
        "lon": 126.9628789,
        "highblood": 0,
        "lungCa": 0,
        "stomachCa": 0,
        "liverCa": 0,
        "bowelCa": 0,
        "breastCa": 0,
        "cesarean": 0,
        "antibiotics": 0,
        "injection": 4,
        "diabetes": 0,
        "asthma": 0,
        "dialysis": 0
    },
    {
        "name": "뉴관악연세의원",
        "hurl": "",
        "lat": 37.4729285155,
        "lon": 126.933875487,
        "highblood": 0,
        "lungCa": 0,
        "stomachCa": 0,
        "liverCa": 0,
        "bowelCa": 0,
        "breastCa": 0,
        "cesarean": 0,
        "antibiotics": 3,
        "injection": 1,
        "diabetes": 0,
        "asthma": 0,
        "dialysis": 0
    },
    {
        "name": "늘튼튼정형외과의원",
        "hurl": "",
        "lat": 37.4819722042,
        "lon": 126.94301653,
        "highblood": 0,
        "lungCa": 0,
        "stomachCa": 0,
        "liverCa": 0,
        "bowelCa": 0,
        "breastCa": 0,
        "cesarean": 0,
        "antibiotics": 0,
        "injection": 2,
        "diabetes": 0,
        "asthma": 0,
        "dialysis": 0
    },
    {
        "name": "늘푸른소아청소년과의원",
        "hurl": "",
        "lat": 37.4760696152,
        "lon": 126.977696795,
        "highblood": 0,
        "lungCa": 0,
        "stomachCa": 0,
        "liverCa": 0,
        "bowelCa": 0,
        "breastCa": 0,
        "cesarean": 0,
        "antibiotics": 3,
        "injection": 1,
        "diabetes": 0,
        "asthma": 0,
        "dialysis": 0
    },
    {
        "name": "다정이비인후과의원",
        "hurl": "",
        "lat": 37.4899613436,
        "lon": 126.927980604,
        "highblood": 0,
        "lungCa": 0,
        "stomachCa": 0,
        "liverCa": 0,
        "bowelCa": 0,
        "breastCa": 0,
        "cesarean": 0,
        "antibiotics": 1,
        "injection": 2,
        "diabetes": 0,
        "asthma": 0,
        "dialysis": 0
    }
][
    {
        "name": "닥터강이비인후과의원",
        "hurl": "",
        "lat": 37.4853493917,
        "lon": 126.918731586,
        "highblood": 0,
        "lungCa": 0,
        "stomachCa": 0,
        "liverCa": 0,
        "bowelCa": 0,
        "breastCa": 0,
        "cesarean": 0,
        "antibiotics": 4,
        "injection": 3,
        "diabetes": 0,
        "asthma": 0,
        "dialysis": 0
    },
    {
        "name": "닥터유의원",
        "hurl": "",
        "lat": 37.4760696152,
        "lon": 126.977696795,
        "highblood": 0,
        "lungCa": 0,
        "stomachCa": 0,
        "liverCa": 0,
        "bowelCa": 0,
        "breastCa": 0,
        "cesarean": 0,
        "antibiotics": 0,
        "injection": 1,
        "diabetes": 0,
        "asthma": 0,
        "dialysis": 0
    },
    {
        "name": "대한결핵협회 부설 복십자의원",
        "hurl": "",
        "lat": 37.530049118,
        "lon": 126.970625636,
        "highblood": 0,
        "lungCa": 0,
        "stomachCa": 0,
        "liverCa": 0,
        "bowelCa": 0,
        "breastCa": 0,
        "cesarean": 0,
        "antibiotics": 1,
        "injection": 3,
        "diabetes": 0,
        "asthma": 0,
        "dialysis": 0
    },
    {
        "name": "더영산부인과의원",
        "hurl": "http://www.the-young.co.kr",
        "lat": 37.5343192,
        "lon": 126.9004171,
        "highblood": 0,
        "lungCa": 0,
        "stomachCa": 0,
        "liverCa": 0,
        "bowelCa": 0,
        "breastCa": 0,
        "cesarean": 0,
        "antibiotics": 0,
        "injection": 4,
        "diabetes": 0,
        "asthma": 0,
        "dialysis": 0
    },
    {
        "name": "더재활의학과의원",
        "hurl": "",
        "lat": 37.4819865023,
        "lon": 126.942772304,
        "highblood": "양호",
        "lungCa": 0,
        "stomachCa": 0,
        "liverCa": 0,
        "bowelCa": 0,
        "breastCa": 0,
        "cesarean": 0,
        "antibiotics": 0,
        "injection": 1,
        "diabetes": 0,
        "asthma": 0,
        "dialysis": 0
    },
    {
        "name": "드림온의원",
        "hurl": "",
        "lat": 37.4843105768,
        "lon": 126.903247201,
        "highblood": 0,
        "lungCa": 0,
        "stomachCa": 0,
        "liverCa": 0,
        "bowelCa": 0,
        "breastCa": 0,
        "cesarean": 0,
        "antibiotics": 0,
        "injection": 5,
        "diabetes": 0,
        "asthma": 0,
        "dialysis": 0
    },
    {
        "name": "라르떼의원",
        "hurl": "",
        "lat": 37.4810353644,
        "lon": 126.951564655,
        "highblood": 0,
        "lungCa": 0,
        "stomachCa": 0,
        "liverCa": 0,
        "bowelCa": 0,
        "breastCa": 0,
        "cesarean": 0,
        "antibiotics": 0,
        "injection": 2,
        "diabetes": 0,
        "asthma": 0,
        "dialysis": 0
    }
][
    {
        "name": "라임의원",
        "hurl": "",
        "lat": 37.4833786,
        "lon": 126.9539129,
        "highblood": 0,
        "lungCa": 0,
        "stomachCa": 0,
        "liverCa": 0,
        "bowelCa": 0,
        "breastCa": 0,
        "cesarean": 0,
        "antibiotics": 0,
        "injection": 3,
        "diabetes": 0,
        "asthma": 0,
        "dialysis": 0
    },
    {
        "name": "리즈산부인과의원",
        "hurl": "http://www.iriz.co.kr/user/branch/branch/contents_01.asp?bseq=OCAg#contents_area",
        "lat": 37.4842959193,
        "lon": 126.928166948,
        "highblood": 0,
        "lungCa": 0,
        "stomachCa": 0,
        "liverCa": 0,
        "bowelCa": 0,
        "breastCa": 0,
        "cesarean": 0,
        "antibiotics": 0,
        "injection": 4,
        "diabetes": 0,
        "asthma": 0,
        "dialysis": 0
    },
    {
        "name": "맑은서울가정의원",
        "hurl": "",
        "lat": 37.4757244883,
        "lon": 126.966151923,
        "highblood": "양호",
        "lungCa": 0,
        "stomachCa": 0,
        "liverCa": 0,
        "bowelCa": 0,
        "breastCa": 0,
        "cesarean": 0,
        "antibiotics": 3,
        "injection": 4,
        "diabetes": 0,
        "asthma": 0,
        "dialysis": 0
    },
    {
        "name": "메디Q의원",
        "hurl": "",
        "lat": 37.4842233548,
        "lon": 126.927375556,
        "highblood": 0,
        "lungCa": 0,
        "stomachCa": 0,
        "liverCa": 0,
        "bowelCa": 0,
        "breastCa": 0,
        "cesarean": 0,
        "antibiotics": 2,
        "injection": 5,
        "diabetes": 0,
        "asthma": 0,
        "dialysis": 0
    },
    {
        "name": "명가소아청소년과의원",
        "hurl": "",
        "lat": 37.4745146514,
        "lon": 126.917278176,
        "highblood": 0,
        "lungCa": 0,
        "stomachCa": 0,
        "liverCa": 0,
        "bowelCa": 0,
        "breastCa": 0,
        "cesarean": 0,
        "antibiotics": 3,
        "injection": 1,
        "diabetes": 0,
        "asthma": 0,
        "dialysis": 0
    },
    {
        "name": "명소아청소년과의원",
        "hurl": "",
        "lat": 37.4864575744,
        "lon": 126.947219297,
        "highblood": 0,
        "lungCa": 0,
        "stomachCa": 0,
        "liverCa": 0,
        "bowelCa": 0,
        "breastCa": 0,
        "cesarean": 0,
        "antibiotics": 1,
        "injection": 1,
        "diabetes": 0,
        "asthma": 0,
        "dialysis": 0
    }
][
    {
        "name": "명의마취통증의학과의원",
        "hurl": "",
        "lat": 37.4813424511,
        "lon": 126.953414142,
        "highblood": 0,
        "lungCa": 0,
        "stomachCa": 0,
        "liverCa": 0,
        "bowelCa": 0,
        "breastCa": 0,
        "cesarean": 0,
        "antibiotics": 0,
        "injection": 1,
        "diabetes": 0,
        "asthma": 0,
        "dialysis": 0
    },
    {
        "name": "명의원",
        "hurl": "",
        "lat": 37.472395062,
        "lon": 126.933776475,
        "highblood": 0,
        "lungCa": 0,
        "stomachCa": 0,
        "liverCa": 0,
        "bowelCa": 0,
        "breastCa": 0,
        "cesarean": 0,
        "antibiotics": 0,
        "injection": 1,
        "diabetes": 0,
        "asthma": 0,
        "dialysis": 0
    },
    {
        "name": "모태산부인과의원",
        "hurl": "http://www.motae.net",
        "lat": 37.481194787,
        "lon": 126.953672014,
        "highblood": 0,
        "lungCa": 0,
        "stomachCa": 0,
        "liverCa": 0,
        "bowelCa": 0,
        "breastCa": 0,
        "cesarean": 1,
        "antibiotics": 2,
        "injection": 3,
        "diabetes": 0,
        "asthma": 0,
        "dialysis": 0
    },
    {
        "name": "문이비인후과의원",
        "hurl": "",
        "lat": 37.4725283988,
        "lon": 126.933753748,
        "highblood": 0,
        "lungCa": 0,
        "stomachCa": 0,
        "liverCa": 0,
        "bowelCa": 0,
        "breastCa": 0,
        "cesarean": 0,
        "antibiotics": 4,
        "injection": 2,
        "diabetes": 0,
        "asthma": 0,
        "dialysis": 0
    },
    {
        "name": "미래드림신경과의원",
        "hurl": "",
        "lat": 37.4759478004,
        "lon": 126.965672476,
        "highblood": 0,
        "lungCa": 0,
        "stomachCa": 0,
        "liverCa": 0,
        "bowelCa": 0,
        "breastCa": 0,
        "cesarean": 0,
        "antibiotics": 1,
        "injection": 3,
        "diabetes": 0,
        "asthma": 0,
        "dialysis": 0
    },
    {
        "name": "미래의원",
        "hurl": "http://www.miraeskin.com/",
        "lat": 37.4819722042,
        "lon": 126.94301653,
        "highblood": 0,
        "lungCa": 0,
        "stomachCa": 0,
        "liverCa": 0,
        "bowelCa": 0,
        "breastCa": 0,
        "cesarean": 0,
        "antibiotics": 0,
        "injection": 4,
        "diabetes": 0,
        "asthma": 0,
        "dialysis": 0
    },
    {
        "name": "미스터비뇨기과의원",
        "hurl": "http://www.mruro.com/",
        "lat": 37.4855119,
        "lon": 126.9299633,
        "highblood": 0,
        "lungCa": 0,
        "stomachCa": 0,
        "liverCa": 0,
        "bowelCa": 0,
        "breastCa": 0,
        "cesarean": 0,
        "antibiotics": 0,
        "injection": 4,
        "diabetes": 0,
        "asthma": 0,
        "dialysis": 0
    },
    {
        "name": "미애로여성의원",
        "hurl": "http://www.miaeroseoul.co.kr",
        "lat": 37.479738442,
        "lon": 126.952876977,
        "highblood": 0,
        "lungCa": 0,
        "stomachCa": 0,
        "liverCa": 0,
        "bowelCa": 0,
        "breastCa": 0,
        "cesarean": 0,
        "antibiotics": 0,
        "injection": 4,
        "diabetes": 0,
        "asthma": 0,
        "dialysis": 0
    },
    {
        "name": "미앤라인의원",
        "hurl": "",
        "lat": 37.474284535,
        "lon": 126.918056219,
        "highblood": 0,
        "lungCa": 0,
        "stomachCa": 0,
        "liverCa": 0,
        "bowelCa": 0,
        "breastCa": 0,
        "cesarean": 0,
        "antibiotics": 1,
        "injection": 4,
        "diabetes": 0,
        "asthma": 0,
        "dialysis": 0
    },
    {
        "name": "미앤미의원",
        "hurl": "",
        "lat": 37.480066102,
        "lon": 126.952112489,
        "highblood": 0,
        "lungCa": 0,
        "stomachCa": 0,
        "liverCa": 0,
        "bowelCa": 0,
        "breastCa": 0,
        "cesarean": 0,
        "antibiotics": 0,
        "injection": 4,
        "diabetes": 0,
        "asthma": 0,
        "dialysis": 0
    }
][
    {
        "name": "바른성모신경외과의원",
        "hurl": "",
        "lat": 37.4822439024,
        "lon": 126.945987615,
        "highblood": 0,
        "lungCa": 0,
        "stomachCa": 0,
        "liverCa": 0,
        "bowelCa": 0,
        "breastCa": 0,
        "cesarean": 0,
        "antibiotics": 4,
        "injection": 3,
        "diabetes": 0,
        "asthma": 0,
        "dialysis": 0
    },
    {
        "name": "박미란소아청소년과의원",
        "hurl": "",
        "lat": 37.4765600234,
        "lon": 126.964112046,
        "highblood": 0,
        "lungCa": 0,
        "stomachCa": 0,
        "liverCa": 0,
        "bowelCa": 0,
        "breastCa": 0,
        "cesarean": 0,
        "antibiotics": 1,
        "injection": 1,
        "diabetes": 0,
        "asthma": 0,
        "dialysis": 0
    },
    {
        "name": "박산부인과의원",
        "hurl": "",
        "lat": 37.4805206033,
        "lon": 126.914499319,
        "highblood": 0,
        "lungCa": 0,
        "stomachCa": 0,
        "liverCa": 0,
        "bowelCa": 0,
        "breastCa": 0,
        "cesarean": 0,
        "antibiotics": 0,
        "injection": 4,
        "diabetes": 0,
        "asthma": 0,
        "dialysis": 0
    },
    {
        "name": "박성신소아과의원",
        "hurl": "",
        "lat": 37.4807385934,
        "lon": 126.927930665,
        "highblood": 0,
        "lungCa": 0,
        "stomachCa": 0,
        "liverCa": 0,
        "bowelCa": 0,
        "breastCa": 0,
        "cesarean": 0,
        "antibiotics": 2,
        "injection": 1,
        "diabetes": 0,
        "asthma": 0,
        "dialysis": 0
    },
    {
        "name": "박성휘내과의원",
        "hurl": "",
        "lat": 37.4775409095,
        "lon": 126.915673971,
        "highblood": 0,
        "lungCa": 0,
        "stomachCa": 0,
        "liverCa": 0,
        "bowelCa": 0,
        "breastCa": 0,
        "cesarean": 0,
        "antibiotics": 0,
        "injection": 4,
        "diabetes": 0,
        "asthma": 0,
        "dialysis": 0
    },
    {
        "name": "박앤박피부과의원",
        "hurl": "http://www.parknpark.co.kr/",
        "lat": 37.4711518227,
        "lon": 126.934053404,
        "highblood": 0,
        "lungCa": 0,
        "stomachCa": 0,
        "liverCa": 0,
        "bowelCa": 0,
        "breastCa": 0,
        "cesarean": 0,
        "antibiotics": 0,
        "injection": 2,
        "diabetes": 0,
        "asthma": 0,
        "dialysis": 0
    },
    {
        "name": "박정근내과의원",
        "hurl": "",
        "lat": 37.4722709437,
        "lon": 126.919609434,
        "highblood": 0,
        "lungCa": 0,
        "stomachCa": 0,
        "liverCa": 0,
        "bowelCa": 0,
        "breastCa": 0,
        "cesarean": 0,
        "antibiotics": 1,
        "injection": 2,
        "diabetes": 0,
        "asthma": 0,
        "dialysis": 0
    },
    {
        "name": "박진억신경정신과의원",
        "hurl": "",
        "lat": 37.4760696152,
        "lon": 126.977696795,
        "highblood": "양호",
        "lungCa": 0,
        "stomachCa": 0,
        "liverCa": 0,
        "bowelCa": 0,
        "breastCa": 0,
        "cesarean": 0,
        "antibiotics": 0,
        "injection": 0,
        "diabetes": 0,
        "asthma": 0,
        "dialysis": 0
    },
    {
        "name": "박찬문내과의원",
        "hurl": "",
        "lat": 37.4842559936,
        "lon": 126.927705677,
        "highblood": "양호",
        "lungCa": 0,
        "stomachCa": 0,
        "liverCa": 0,
        "bowelCa": 0,
        "breastCa": 0,
        "cesarean": 0,
        "antibiotics": 2,
        "injection": 4,
        "diabetes": 0,
        "asthma": 0,
        "dialysis": 0
    },
    {
        "name": "박춘식산부인과의원",
        "hurl": "",
        "lat": 37.4785282403,
        "lon": 126.915428658,
        "highblood": 0,
        "lungCa": 0,
        "stomachCa": 0,
        "liverCa": 0,
        "bowelCa": 0,
        "breastCa": 0,
        "cesarean": 0,
        "antibiotics": 5,
        "injection": 5,
        "diabetes": 0,
        "asthma": 0,
        "dialysis": 0
    }
][
    {
        "name": "밝은소아과의원",
        "hurl": "",
        "lat": 37.4738432624,
        "lon": 126.966442179,
        "highblood": 0,
        "lungCa": 0,
        "stomachCa": 0,
        "liverCa": 0,
        "bowelCa": 0,
        "breastCa": 0,
        "cesarean": 0,
        "antibiotics": 1,
        "injection": 1,
        "diabetes": 0,
        "asthma": 0,
        "dialysis": 0
    },
    {
        "name": "백내과의원",
        "hurl": "",
        "lat": 37.485073527,
        "lon": 126.94699866,
        "highblood": "양호",
        "lungCa": 0,
        "stomachCa": 0,
        "liverCa": 0,
        "bowelCa": 0,
        "breastCa": 0,
        "cesarean": 0,
        "antibiotics": 0,
        "injection": 1,
        "diabetes": 0,
        "asthma": 0,
        "dialysis": 0
    },
    {
        "name": "밸런스자연통합의원",
        "hurl": "",
        "lat": 37.4988346,
        "lon": 126.9303519,
        "highblood": 0,
        "lungCa": 0,
        "stomachCa": 0,
        "liverCa": 0,
        "bowelCa": 0,
        "breastCa": 0,
        "cesarean": 0,
        "antibiotics": 0,
        "injection": 0,
        "diabetes": 0,
        "asthma": 0,
        "dialysis": 0
    },
    {
        "name": "베스톤비뇨기과의원",
        "hurl": "",
        "lat": 37.4867006853,
        "lon": 126.913352535,
        "highblood": 0,
        "lungCa": 0,
        "stomachCa": 0,
        "liverCa": 0,
        "bowelCa": 0,
        "breastCa": 0,
        "cesarean": 0,
        "antibiotics": 0,
        "injection": 4,
        "diabetes": 0,
        "asthma": 0,
        "dialysis": 0
    },
    {
        "name": "베스트의원",
        "hurl": "",
        "lat": 37.4848098283,
        "lon": 126.931771022,
        "highblood": 0,
        "lungCa": 0,
        "stomachCa": 0,
        "liverCa": 0,
        "bowelCa": 0,
        "breastCa": 0,
        "cesarean": 0,
        "antibiotics": 3,
        "injection": 5,
        "diabetes": 0,
        "asthma": 0,
        "dialysis": 0
    },
    {
        "name": "변산부인과의원",
        "hurl": "",
        "lat": 37.4813526881,
        "lon": 126.913883316,
        "highblood": 0,
        "lungCa": 0,
        "stomachCa": 0,
        "liverCa": 0,
        "bowelCa": 0,
        "breastCa": 0,
        "cesarean": 0,
        "antibiotics": 0,
        "injection": 3,
        "diabetes": 0,
        "asthma": 0,
        "dialysis": 0
    },
    {
        "name": "보라매정형외과의원",
        "hurl": "",
        "lat": 37.4900328944,
        "lon": 126.927116645,
        "highblood": 0,
        "lungCa": 0,
        "stomachCa": 0,
        "liverCa": 0,
        "bowelCa": 0,
        "breastCa": 0,
        "cesarean": 0,
        "antibiotics": 0,
        "injection": 3,
        "diabetes": 0,
        "asthma": 0,
        "dialysis": 0
    },
    {
        "name": "보스턴은소아청소년과의원",
        "hurl": "",
        "lat": 37.4861425,
        "lon": 126.9472933,
        "highblood": 0,
        "lungCa": 0,
        "stomachCa": 0,
        "liverCa": 0,
        "bowelCa": 0,
        "breastCa": 0,
        "cesarean": 0,
        "antibiotics": 1,
        "injection": 1,
        "diabetes": 0,
        "asthma": 0,
        "dialysis": 0
    },
    {
        "name": "봉천서울안과의원",
        "hurl": "",
        "lat": 37.4819865023,
        "lon": 126.942772304,
        "highblood": 0,
        "lungCa": 0,
        "stomachCa": 0,
        "liverCa": 0,
        "bowelCa": 0,
        "breastCa": 0,
        "cesarean": 0,
        "antibiotics": 0,
        "injection": 1,
        "diabetes": 0,
        "asthma": 0,
        "dialysis": 0
    }
][
    {
        "name": "봉천연세가정의학과의원",
        "hurl": "",
        "lat": 37.4863960508,
        "lon": 126.939191435,
        "highblood": 0,
        "lungCa": 0,
        "stomachCa": 0,
        "liverCa": 0,
        "bowelCa": 0,
        "breastCa": 0,
        "cesarean": 0,
        "antibiotics": 1,
        "injection": 5,
        "diabetes": 0,
        "asthma": 0,
        "dialysis": 0
    },
    {
        "name": "사는기쁨이비인후과의원",
        "hurl": "http://www.joymedic.com/",
        "lat": 37.4736848198,
        "lon": 126.966921582,
        "highblood": 0,
        "lungCa": 0,
        "stomachCa": 0,
        "liverCa": 0,
        "bowelCa": 0,
        "breastCa": 0,
        "cesarean": 0,
        "antibiotics": 4,
        "injection": 3,
        "diabetes": 0,
        "asthma": 0,
        "dialysis": 0
    },
    {
        "name": "사회복지법인 에스알씨(SRC)부설의원",
        "hurl": "",
        "lat": 37.4931744,
        "lon": 126.9273894,
        "highblood": 0,
        "lungCa": 0,
        "stomachCa": 0,
        "liverCa": 0,
        "bowelCa": 0,
        "breastCa": 0,
        "cesarean": 0,
        "antibiotics": 1,
        "injection": 1,
        "diabetes": 0,
        "asthma": 0,
        "dialysis": 0
    },
    {
        "name": "삼성산부인과의원",
        "hurl": "",
        "lat": 37.4738516541,
        "lon": 126.917486919,
        "highblood": 0,
        "lungCa": 0,
        "stomachCa": 0,
        "liverCa": 0,
        "bowelCa": 0,
        "breastCa": 0,
        "cesarean": 0,
        "antibiotics": 0,
        "injection": 4,
        "diabetes": 0,
        "asthma": 0,
        "dialysis": 0
    },
    {
        "name": "삼성신경외과의원",
        "hurl": "",
        "lat": 37.4866836,
        "lon": 126.9473397,
        "highblood": 0,
        "lungCa": 0,
        "stomachCa": 0,
        "liverCa": 0,
        "bowelCa": 0,
        "breastCa": 0,
        "cesarean": 0,
        "antibiotics": 1,
        "injection": 2,
        "diabetes": 0,
        "asthma": 0,
        "dialysis": 0
    },
    {
        "name": "삼성정형외과의원",
        "hurl": "",
        "lat": 37.4710907026,
        "lon": 126.934320247,
        "highblood": 0,
        "lungCa": 0,
        "stomachCa": 0,
        "liverCa": 0,
        "bowelCa": 0,
        "breastCa": 0,
        "cesarean": 0,
        "antibiotics": 0,
        "injection": 2,
        "diabetes": 0,
        "asthma": 0,
        "dialysis": 0
    },
    {
        "name": "삼성척척마취통증의학과의원",
        "hurl": "",
        "lat": 37.4842228335,
        "lon": 126.955379699,
        "highblood": 0,
        "lungCa": 0,
        "stomachCa": 0,
        "liverCa": 0,
        "bowelCa": 0,
        "breastCa": 0,
        "cesarean": 0,
        "antibiotics": 0,
        "injection": 1,
        "diabetes": 0,
        "asthma": 0,
        "dialysis": 0
    },
    {
        "name": "삼성탑의원",
        "hurl": "",
        "lat": 37.4670008673,
        "lon": 126.9293772,
        "highblood": 0,
        "lungCa": 0,
        "stomachCa": 0,
        "liverCa": 0,
        "bowelCa": 0,
        "breastCa": 0,
        "cesarean": 0,
        "antibiotics": 1,
        "injection": 2,
        "diabetes": 0,
        "asthma": 0,
        "dialysis": 0
    },
    {
        "name": "삼성편한내과의원",
        "hurl": "http://www.samsungim.co.kr",
        "lat": 37.4710907026,
        "lon": 126.934320247,
        "highblood": "양호",
        "lungCa": 0,
        "stomachCa": 0,
        "liverCa": 0,
        "bowelCa": 0,
        "breastCa": 0,
        "cesarean": 0,
        "antibiotics": 5,
        "injection": 3,
        "diabetes": "양호",
        "asthma": 0,
        "dialysis": 0
    },
    {
        "name": "새생명내과의원",
        "hurl": "",
        "lat": 37.4821678191,
        "lon": 126.914737135,
        "highblood": 0,
        "lungCa": 0,
        "stomachCa": 0,
        "liverCa": 0,
        "bowelCa": 0,
        "breastCa": 0,
        "cesarean": 0,
        "antibiotics": 0,
        "injection": 2,
        "diabetes": 0,
        "asthma": 0,
        "dialysis": 0
    }
][
    {
        "name": "새연세재활의학과의원",
        "hurl": "",
        "lat": 37.4848970234,
        "lon": 126.95600795,
        "highblood": 0,
        "lungCa": 0,
        "stomachCa": 0,
        "liverCa": 0,
        "bowelCa": 0,
        "breastCa": 0,
        "cesarean": 0,
        "antibiotics": 0,
        "injection": 4,
        "diabetes": 0,
        "asthma": 0,
        "dialysis": 0
    },
    {
        "name": "새힘신경외과의원",
        "hurl": "",
        "lat": 37.4711518227,
        "lon": 126.934053404,
        "highblood": 0,
        "lungCa": 0,
        "stomachCa": 0,
        "liverCa": 0,
        "bowelCa": 0,
        "breastCa": 0,
        "cesarean": 0,
        "antibiotics": 0,
        "injection": 1,
        "diabetes": 0,
        "asthma": 0,
        "dialysis": 0
    },
    {
        "name": "서내과의원",
        "hurl": "",
        "lat": 37.4819865023,
        "lon": 126.942772304,
        "highblood": "양호",
        "lungCa": 0,
        "stomachCa": 0,
        "liverCa": 0,
        "bowelCa": 0,
        "breastCa": 0,
        "cesarean": 0,
        "antibiotics": 3,
        "injection": 2,
        "diabetes": 0,
        "asthma": "양호",
        "dialysis": 0
    },
    {
        "name": "서울365가정의원",
        "hurl": "",
        "lat": 37.6705738112,
        "lon": 127.078785895,
        "highblood": 0,
        "lungCa": 0,
        "stomachCa": 0,
        "liverCa": 0,
        "bowelCa": 0,
        "breastCa": 0,
        "cesarean": 0,
        "antibiotics": 4,
        "injection": 5,
        "diabetes": 0,
        "asthma": 0,
        "dialysis": 0
    },
    {
        "name": "서울S비뇨기과의원",
        "hurl": "http://www.urostone.com",
        "lat": 37.480066102,
        "lon": 126.952112489,
        "highblood": 0,
        "lungCa": 0,
        "stomachCa": 0,
        "liverCa": 0,
        "bowelCa": 0,
        "breastCa": 0,
        "cesarean": 0,
        "antibiotics": 0,
        "injection": 4,
        "diabetes": 0,
        "asthma": 0,
        "dialysis": 0
    },
    {
        "name": "서울W내과의원",
        "hurl": "",
        "lat": 37.480066102,
        "lon": 126.952112489,
        "highblood": 0,
        "lungCa": 0,
        "stomachCa": 0,
        "liverCa": 0,
        "bowelCa": 0,
        "breastCa": 0,
        "cesarean": 0,
        "antibiotics": 3,
        "injection": 3,
        "diabetes": 0,
        "asthma": 0,
        "dialysis": 0
    },
    {
        "name": "서울e연세의원",
        "hurl": "http://www.seyclinic.kr/",
        "lat": 37.4862853423,
        "lon": 126.941199629,
        "highblood": 0,
        "lungCa": 0,
        "stomachCa": 0,
        "liverCa": 0,
        "bowelCa": 0,
        "breastCa": 0,
        "cesarean": 0,
        "antibiotics": 1,
        "injection": 4,
        "diabetes": 0,
        "asthma": 0,
        "dialysis": 0
    },
    {
        "name": "서울가정의학과의원",
        "hurl": "",
        "lat": 37.4913225,
        "lon": 126.9486157,
        "highblood": "양호",
        "lungCa": 0,
        "stomachCa": 0,
        "liverCa": 0,
        "bowelCa": 0,
        "breastCa": 0,
        "cesarean": 0,
        "antibiotics": 2,
        "injection": 3,
        "diabetes": 0,
        "asthma": "양호",
        "dialysis": 0
    },
    {
        "name": "서울김정아소아청소년과의원",
        "hurl": "",
        "lat": 37.4843562407,
        "lon": 126.95553339,
        "highblood": 0,
        "lungCa": 0,
        "stomachCa": 0,
        "liverCa": 0,
        "bowelCa": 0,
        "breastCa": 0,
        "cesarean": 0,
        "antibiotics": 0,
        "injection": 1,
        "diabetes": 0,
        "asthma": 0,
        "dialysis": 0
    },
    {
        "name": "서울대학교직장부속의원",
        "hurl": "",
        "lat": 37.4680385091,
        "lon": 126.959296033,
        "highblood": 0,
        "lungCa": 0,
        "stomachCa": 0,
        "liverCa": 0,
        "bowelCa": 0,
        "breastCa": 0,
        "cesarean": 0,
        "antibiotics": 1,
        "injection": 1,
        "diabetes": 0,
        "asthma": 0,
        "dialysis": 0
    }
][
    {
        "name": "서울디딤정신건강의학과의원",
        "hurl": "",
        "lat": 37.4783178539,
        "lon": 126.96114007,
        "highblood": 0,
        "lungCa": 0,
        "stomachCa": 0,
        "liverCa": 0,
        "bowelCa": 0,
        "breastCa": 0,
        "cesarean": 0,
        "antibiotics": 0,
        "injection": 0,
        "diabetes": 0,
        "asthma": 0,
        "dialysis": 0
    },
    {
        "name": "서울본내과의원",
        "hurl": "",
        "lat": 37.4815776447,
        "lon": 126.91105199,
        "highblood": 0,
        "lungCa": 0,
        "stomachCa": 0,
        "liverCa": 0,
        "bowelCa": 0,
        "breastCa": 0,
        "cesarean": 0,
        "antibiotics": 5,
        "injection": 4,
        "diabetes": 0,
        "asthma": 0,
        "dialysis": 0
    },
    {
        "name": "서울비뇨기과의원",
        "hurl": "",
        "lat": 37.480704569,
        "lon": 126.953495942,
        "highblood": 0,
        "lungCa": 0,
        "stomachCa": 0,
        "liverCa": 0,
        "bowelCa": 0,
        "breastCa": 0,
        "cesarean": 0,
        "antibiotics": 0,
        "injection": 4,
        "diabetes": 0,
        "asthma": 0,
        "dialysis": 0
    },
    {
        "name": "서울삼성내과의원",
        "hurl": "",
        "lat": 37.4864575744,
        "lon": 126.947219297,
        "highblood": "양호",
        "lungCa": 0,
        "stomachCa": 0,
        "liverCa": 0,
        "bowelCa": 0,
        "breastCa": 0,
        "cesarean": 0,
        "antibiotics": 3,
        "injection": 4,
        "diabetes": 0,
        "asthma": 0,
        "dialysis": 0
    },
    {
        "name": "서울연세가정의원",
        "hurl": "",
        "lat": 37.4664788129,
        "lon": 126.930272961,
        "highblood": 0,
        "lungCa": 0,
        "stomachCa": 0,
        "liverCa": 0,
        "bowelCa": 0,
        "breastCa": 0,
        "cesarean": 0,
        "antibiotics": 0,
        "injection": 4,
        "diabetes": 0,
        "asthma": 0,
        "dialysis": 0
    },
    {
        "name": "서울연합의원",
        "hurl": "",
        "lat": 37.4846013724,
        "lon": 126.946940199,
        "highblood": "양호",
        "lungCa": 0,
        "stomachCa": 0,
        "liverCa": 0,
        "bowelCa": 0,
        "breastCa": 0,
        "cesarean": 0,
        "antibiotics": 5,
        "injection": 1,
        "diabetes": "양호",
        "asthma": 0,
        "dialysis": 0
    },
    {
        "name": "서울원정형외과 소아청소년과의원",
        "hurl": "",
        "lat": 37.485863993,
        "lon": 126.941851232,
        "highblood": 0,
        "lungCa": 0,
        "stomachCa": 0,
        "liverCa": 0,
        "bowelCa": 0,
        "breastCa": 0,
        "cesarean": 0,
        "antibiotics": 3,
        "injection": 5,
        "diabetes": 0,
        "asthma": 0,
        "dialysis": 0
    },
    {
        "name": "서울의원",
        "hurl": "",
        "lat": 37.4797413352,
        "lon": 126.943077015,
        "highblood": "양호",
        "lungCa": 0,
        "stomachCa": 0,
        "liverCa": 0,
        "bowelCa": 0,
        "breastCa": 0,
        "cesarean": 0,
        "antibiotics": 1,
        "injection": 5,
        "diabetes": 0,
        "asthma": 0,
        "dialysis": 0
    },
    {
        "name": "서울이비인후과의원",
        "hurl": "",
        "lat": 37.473413016,
        "lon": 126.919011309,
        "highblood": 0,
        "lungCa": 0,
        "stomachCa": 0,
        "liverCa": 0,
        "bowelCa": 0,
        "breastCa": 0,
        "cesarean": 0,
        "antibiotics": 5,
        "injection": 5,
        "diabetes": 0,
        "asthma": 0,
        "dialysis": 0
    },
    {
        "name": "서울조인트내과의원",
        "hurl": "",
        "lat": 37.4866836,
        "lon": 126.9473397,
        "highblood": 0,
        "lungCa": 0,
        "stomachCa": 0,
        "liverCa": 0,
        "bowelCa": 0,
        "breastCa": 0,
        "cesarean": 0,
        "antibiotics": 3,
        "injection": 4,
        "diabetes": 0,
        "asthma": 0,
        "dialysis": 0
    }
][
    {
        "name": "서울탑정신건강의학과의원",
        "hurl": "http://www.seouljunior.co.kr",
        "lat": 37.4802142179,
        "lon": 126.952985216,
        "highblood": 0,
        "lungCa": 0,
        "stomachCa": 0,
        "liverCa": 0,
        "bowelCa": 0,
        "breastCa": 0,
        "cesarean": 0,
        "antibiotics": 0,
        "injection": 0,
        "diabetes": 0,
        "asthma": 0,
        "dialysis": 0
    },
    {
        "name": "서전성모안과의원",
        "hurl": "http://www.vseye.co.kr",
        "lat": 37.4864477,
        "lon": 126.9472464,
        "highblood": 0,
        "lungCa": 0,
        "stomachCa": 0,
        "liverCa": 0,
        "bowelCa": 0,
        "breastCa": 0,
        "cesarean": 0,
        "antibiotics": 0,
        "injection": 1,
        "diabetes": 0,
        "asthma": 0,
        "dialysis": 0
    },
    {
        "name": "서초영상의학과의원",
        "hurl": "",
        "lat": 37.4800636596,
        "lon": 126.955070128,
        "highblood": 0,
        "lungCa": 0,
        "stomachCa": 0,
        "liverCa": 0,
        "bowelCa": 0,
        "breastCa": 0,
        "cesarean": 0,
        "antibiotics": 0,
        "injection": 0,
        "diabetes": 0,
        "asthma": 0,
        "dialysis": 0
    },
    {
        "name": "선산부인과의원",
        "hurl": "http://www.ladysun.co.kr",
        "lat": 37.4842270477,
        "lon": 126.927520277,
        "highblood": 0,
        "lungCa": 0,
        "stomachCa": 0,
        "liverCa": 0,
        "bowelCa": 0,
        "breastCa": 0,
        "cesarean": 0,
        "antibiotics": 0,
        "injection": 5,
        "diabetes": 0,
        "asthma": 0,
        "dialysis": 0
    },
    {
        "name": "성모가정의학과의원",
        "hurl": "",
        "lat": 37.4708056882,
        "lon": 126.933791443,
        "highblood": "양호",
        "lungCa": 0,
        "stomachCa": 0,
        "liverCa": 0,
        "bowelCa": 0,
        "breastCa": 0,
        "cesarean": 0,
        "antibiotics": 0,
        "injection": 2,
        "diabetes": "양호",
        "asthma": 0,
        "dialysis": 0
    },
    {
        "name": "성모베스트이비인후과의원",
        "hurl": "",
        "lat": 37.4738989533,
        "lon": 126.918128993,
        "highblood": 0,
        "lungCa": 0,
        "stomachCa": 0,
        "liverCa": 0,
        "bowelCa": 0,
        "breastCa": 0,
        "cesarean": 0,
        "antibiotics": 2,
        "injection": 2,
        "diabetes": 0,
        "asthma": 0,
        "dialysis": 0
    },
    {
        "name": "성모안과의원",
        "hurl": "",
        "lat": 37.4814759937,
        "lon": 126.953907009,
        "highblood": 0,
        "lungCa": 0,
        "stomachCa": 0,
        "liverCa": 0,
        "bowelCa": 0,
        "breastCa": 0,
        "cesarean": 0,
        "antibiotics": 0,
        "injection": 2,
        "diabetes": 0,
        "asthma": 0,
        "dialysis": 0
    },
    {
        "name": "성모의원",
        "hurl": "",
        "lat": 37.4839800069,
        "lon": 126.913853165,
        "highblood": "양호",
        "lungCa": 0,
        "stomachCa": 0,
        "liverCa": 0,
        "bowelCa": 0,
        "breastCa": 0,
        "cesarean": 0,
        "antibiotics": 4,
        "injection": 5,
        "diabetes": 0,
        "asthma": 0,
        "dialysis": 0
    },
    {
        "name": "성모튼튼정형외과의원",
        "hurl": "",
        "lat": 37.4763218021,
        "lon": 126.977194761,
        "highblood": 0,
        "lungCa": 0,
        "stomachCa": 0,
        "liverCa": 0,
        "bowelCa": 0,
        "breastCa": 0,
        "cesarean": 0,
        "antibiotics": 1,
        "injection": 3,
        "diabetes": 0,
        "asthma": 0,
        "dialysis": 0
    }
][
    {
        "name": "세이브내과의원",
        "hurl": "",
        "lat": 37.4739076,
        "lon": 126.9181669,
        "highblood": "양호",
        "lungCa": 0,
        "stomachCa": 0,
        "liverCa": 0,
        "bowelCa": 0,
        "breastCa": 0,
        "cesarean": 0,
        "antibiotics": 4,
        "injection": 5,
        "diabetes": 0,
        "asthma": 0,
        "dialysis": 0
    },
    {
        "name": "소망의원",
        "hurl": "",
        "lat": 37.4787405058,
        "lon": 126.931550425,
        "highblood": "양호",
        "lungCa": 0,
        "stomachCa": 0,
        "liverCa": 0,
        "bowelCa": 0,
        "breastCa": 0,
        "cesarean": 0,
        "antibiotics": 2,
        "injection": 3,
        "diabetes": "양호",
        "asthma": 0,
        "dialysis": 0
    },
    {
        "name": "손소아과의원",
        "hurl": "",
        "lat": 37.4793849036,
        "lon": 126.943846083,
        "highblood": 0,
        "lungCa": 0,
        "stomachCa": 0,
        "liverCa": 0,
        "bowelCa": 0,
        "breastCa": 0,
        "cesarean": 0,
        "antibiotics": 3,
        "injection": 1,
        "diabetes": 0,
        "asthma": 0,
        "dialysis": 0
    },
    {
        "name": "손승환내과의원",
        "hurl": "",
        "lat": 37.4813119458,
        "lon": 126.949348472,
        "highblood": 0,
        "lungCa": 0,
        "stomachCa": 0,
        "liverCa": 0,
        "bowelCa": 0,
        "breastCa": 0,
        "cesarean": 0,
        "antibiotics": 1,
        "injection": 4,
        "diabetes": "양호",
        "asthma": 0,
        "dialysis": 2
    },
    {
        "name": "손이비인후과의원",
        "hurl": "",
        "lat": 37.4860608363,
        "lon": 126.93911482,
        "highblood": 0,
        "lungCa": 0,
        "stomachCa": 0,
        "liverCa": 0,
        "bowelCa": 0,
        "breastCa": 0,
        "cesarean": 0,
        "antibiotics": 3,
        "injection": 2,
        "diabetes": 0,
        "asthma": 0,
        "dialysis": 0
    },
    {
        "name": "손장원정형외과의원",
        "hurl": "",
        "lat": 37.4832959815,
        "lon": 126.953779258,
        "highblood": 0,
        "lungCa": 0,
        "stomachCa": 0,
        "liverCa": 0,
        "bowelCa": 0,
        "breastCa": 0,
        "cesarean": 0,
        "antibiotics": 0,
        "injection": 3,
        "diabetes": 0,
        "asthma": 0,
        "dialysis": 0
    },
    {
        "name": "손홍주내과의원",
        "hurl": "",
        "lat": 37.477755,
        "lon": 126.9140168,
        "highblood": 0,
        "lungCa": 0,
        "stomachCa": 0,
        "liverCa": 0,
        "bowelCa": 0,
        "breastCa": 0,
        "cesarean": 0,
        "antibiotics": 3,
        "injection": 5,
        "diabetes": 0,
        "asthma": 0,
        "dialysis": 0
    },
    {
        "name": "수정형외과의원",
        "hurl": "",
        "lat": 37.4851032,
        "lon": 126.9136449,
        "highblood": 0,
        "lungCa": 0,
        "stomachCa": 0,
        "liverCa": 0,
        "bowelCa": 0,
        "breastCa": 0,
        "cesarean": 0,
        "antibiotics": 0,
        "injection": 3,
        "diabetes": 0,
        "asthma": 0,
        "dialysis": 0
    },
    {
        "name": "신대방성모내과의원",
        "hurl": "",
        "lat": 37.4867006853,
        "lon": 126.913352535,
        "highblood": 0,
        "lungCa": 0,
        "stomachCa": 0,
        "liverCa": 0,
        "bowelCa": 0,
        "breastCa": 0,
        "cesarean": 0,
        "antibiotics": 0,
        "injection": 2,
        "diabetes": 0,
        "asthma": "양호",
        "dialysis": 0
    }
][
    {
        "name": "신동진내과의원",
        "hurl": "",
        "lat": 37.4860429766,
        "lon": 126.939426904,
        "highblood": "양호",
        "lungCa": 0,
        "stomachCa": 0,
        "liverCa": 0,
        "bowelCa": 0,
        "breastCa": 0,
        "cesarean": 0,
        "antibiotics": 1,
        "injection": 2,
        "diabetes": "양호",
        "asthma": 0,
        "dialysis": 0
    },
    {
        "name": "신동현내과의원",
        "hurl": "",
        "lat": 37.4630583908,
        "lon": 126.918705984,
        "highblood": "양호",
        "lungCa": 0,
        "stomachCa": 0,
        "liverCa": 0,
        "bowelCa": 0,
        "breastCa": 0,
        "cesarean": 0,
        "antibiotics": 2,
        "injection": 3,
        "diabetes": "양호",
        "asthma": 0,
        "dialysis": 0
    },
    {
        "name": "신림연세이비인후과의원",
        "hurl": "",
        "lat": 37.4843757626,
        "lon": 126.929084968,
        "highblood": 0,
        "lungCa": 0,
        "stomachCa": 0,
        "liverCa": 0,
        "bowelCa": 0,
        "breastCa": 0,
        "cesarean": 0,
        "antibiotics": 2,
        "injection": 5,
        "diabetes": 0,
        "asthma": 0,
        "dialysis": 0
    },
    {
        "name": "신림정신건강의학과의원",
        "hurl": "",
        "lat": 37.4869780244,
        "lon": 126.929335785,
        "highblood": 0,
        "lungCa": 0,
        "stomachCa": 0,
        "liverCa": 0,
        "bowelCa": 0,
        "breastCa": 0,
        "cesarean": 0,
        "antibiotics": 0,
        "injection": 0,
        "diabetes": 0,
        "asthma": 0,
        "dialysis": 0
    },
    {
        "name": "신림제일정형외과의원",
        "hurl": "",
        "lat": 37.4855079437,
        "lon": 126.929947735,
        "highblood": 0,
        "lungCa": 0,
        "stomachCa": 0,
        "liverCa": 0,
        "bowelCa": 0,
        "breastCa": 0,
        "cesarean": 0,
        "antibiotics": 0,
        "injection": 1,
        "diabetes": 0,
        "asthma": 0,
        "dialysis": 0
    },
    {
        "name": "신숙진산부인과의원",
        "hurl": "",
        "lat": 37.4816543093,
        "lon": 126.928409168,
        "highblood": 0,
        "lungCa": 0,
        "stomachCa": 0,
        "liverCa": 0,
        "bowelCa": 0,
        "breastCa": 0,
        "cesarean": 0,
        "antibiotics": 0,
        "injection": 4,
        "diabetes": 0,
        "asthma": 0,
        "dialysis": 0
    },
    {
        "name": "신창식이비인후과의원",
        "hurl": "",
        "lat": 37.4819364874,
        "lon": 126.930186239,
        "highblood": 0,
        "lungCa": 0,
        "stomachCa": 0,
        "liverCa": 0,
        "bowelCa": 0,
        "breastCa": 0,
        "cesarean": 0,
        "antibiotics": 2,
        "injection": 2,
        "diabetes": 0,
        "asthma": 0,
        "dialysis": 0
    },
    {
        "name": "신한방사선과의원",
        "hurl": "",
        "lat": 37.483194177,
        "lon": 126.929986076,
        "highblood": 0,
        "lungCa": 0,
        "stomachCa": 0,
        "liverCa": 0,
        "bowelCa": 0,
        "breastCa": 0,
        "cesarean": 0,
        "antibiotics": 0,
        "injection": 0,
        "diabetes": 0,
        "asthma": 0,
        "dialysis": 0
    },
    {
        "name": "심우익내과의원",
        "hurl": "",
        "lat": 37.4747228223,
        "lon": 126.967061309,
        "highblood": 0,
        "lungCa": 0,
        "stomachCa": 0,
        "liverCa": 0,
        "bowelCa": 0,
        "breastCa": 0,
        "cesarean": 0,
        "antibiotics": 1,
        "injection": 2,
        "diabetes": 0,
        "asthma": 0,
        "dialysis": 0
    }
][
    {
        "name": "씨티안과의원",
        "hurl": "",
        "lat": 37.4825744412,
        "lon": 126.930253484,
        "highblood": 0,
        "lungCa": 0,
        "stomachCa": 0,
        "liverCa": 0,
        "bowelCa": 0,
        "breastCa": 0,
        "cesarean": 0,
        "antibiotics": 0,
        "injection": 1,
        "diabetes": 0,
        "asthma": 0,
        "dialysis": 0
    },
    {
        "name": "아름드리가정의원",
        "hurl": "",
        "lat": 37.4877259019,
        "lon": 126.932487502,
        "highblood": 0,
        "lungCa": 0,
        "stomachCa": 0,
        "liverCa": 0,
        "bowelCa": 0,
        "breastCa": 0,
        "cesarean": 0,
        "antibiotics": 1,
        "injection": 2,
        "diabetes": 0,
        "asthma": 0,
        "dialysis": 0
    },
    {
        "name": "아이랑소아청소년과의원",
        "hurl": "",
        "lat": 37.4737298511,
        "lon": 126.918545201,
        "highblood": 0,
        "lungCa": 0,
        "stomachCa": 0,
        "liverCa": 0,
        "bowelCa": 0,
        "breastCa": 0,
        "cesarean": 0,
        "antibiotics": 2,
        "injection": 1,
        "diabetes": 0,
        "asthma": 0,
        "dialysis": 0
    },
    {
        "name": "아이빛소아과의원",
        "hurl": "",
        "lat": 37.4819687329,
        "lon": 126.943292405,
        "highblood": "양호",
        "lungCa": 0,
        "stomachCa": 0,
        "liverCa": 0,
        "bowelCa": 0,
        "breastCa": 0,
        "cesarean": 0,
        "antibiotics": 1,
        "injection": 1,
        "diabetes": 0,
        "asthma": 0,
        "dialysis": 0
    },
    {
        "name": "아하로마이비인후과의원",
        "hurl": "",
        "lat": 37.4825640935,
        "lon": 126.953096807,
        "highblood": 0,
        "lungCa": 0,
        "stomachCa": 0,
        "liverCa": 0,
        "bowelCa": 0,
        "breastCa": 0,
        "cesarean": 0,
        "antibiotics": 0,
        "injection": 5,
        "diabetes": 0,
        "asthma": 0,
        "dialysis": 0
    },
    {
        "name": "안장훈내과의원",
        "hurl": "",
        "lat": 37.4898158,
        "lon": 126.9516251,
        "highblood": "양호",
        "lungCa": 0,
        "stomachCa": 0,
        "liverCa": 0,
        "bowelCa": 0,
        "breastCa": 0,
        "cesarean": 0,
        "antibiotics": 0,
        "injection": 4,
        "diabetes": 0,
        "asthma": 0,
        "dialysis": 0
    },
    {
        "name": "애플산부인과의원",
        "hurl": "",
        "lat": 37.4846396981,
        "lon": 126.93050031,
        "highblood": 0,
        "lungCa": 0,
        "stomachCa": 0,
        "liverCa": 0,
        "bowelCa": 0,
        "breastCa": 0,
        "cesarean": 0,
        "antibiotics": 0,
        "injection": 2,
        "diabetes": 0,
        "asthma": 0,
        "dialysis": 0
    },
    {
        "name": "양일반외과의원",
        "hurl": "",
        "lat": 37.4877367861,
        "lon": 126.94672993,
        "highblood": "양호",
        "lungCa": 0,
        "stomachCa": 0,
        "liverCa": 0,
        "bowelCa": 0,
        "breastCa": 0,
        "cesarean": 0,
        "antibiotics": 1,
        "injection": 5,
        "diabetes": "양호",
        "asthma": 0,
        "dialysis": 0
    },
    {
        "name": "양종목내과의원",
        "hurl": "",
        "lat": 37.4763361656,
        "lon": 126.976923427,
        "highblood": "양호",
        "lungCa": 0,
        "stomachCa": 0,
        "liverCa": 0,
        "bowelCa": 0,
        "breastCa": 0,
        "cesarean": 0,
        "antibiotics": 1,
        "injection": 1,
        "diabetes": "양호",
        "asthma": 0,
        "dialysis": 0
    },
    {
        "name": "엄창수신경외과의원",
        "hurl": "",
        "lat": 37.4821678191,
        "lon": 126.914737135,
        "highblood": 0,
        "lungCa": 0,
        "stomachCa": 0,
        "liverCa": 0,
        "bowelCa": 0,
        "breastCa": 0,
        "cesarean": 0,
        "antibiotics": 0,
        "injection": 1,
        "diabetes": 0,
        "asthma": 0,
        "dialysis": 0
    }
][
    {
        "name": "엘산부인과의원",
        "hurl": "",
        "lat": 37.4763943578,
        "lon": 126.964510076,
        "highblood": 0,
        "lungCa": 0,
        "stomachCa": 0,
        "liverCa": 0,
        "bowelCa": 0,
        "breastCa": 0,
        "cesarean": 0,
        "antibiotics": 0,
        "injection": 4,
        "diabetes": 0,
        "asthma": 0,
        "dialysis": 0
    },
    {
        "name": "연세W산부인과의원(구로점)",
        "hurl": "",
        "lat": 37.4835386713,
        "lon": 126.902465789,
        "highblood": 0,
        "lungCa": 0,
        "stomachCa": 0,
        "liverCa": 0,
        "bowelCa": 0,
        "breastCa": 0,
        "cesarean": 0,
        "antibiotics": 0,
        "injection": 4,
        "diabetes": 0,
        "asthma": 0,
        "dialysis": 0
    },
    {
        "name": "연세가정의원",
        "hurl": "",
        "lat": 37.4920556799,
        "lon": 126.958925678,
        "highblood": "양호",
        "lungCa": 0,
        "stomachCa": 0,
        "liverCa": 0,
        "bowelCa": 0,
        "breastCa": 0,
        "cesarean": 0,
        "antibiotics": 1,
        "injection": 4,
        "diabetes": 0,
        "asthma": 0,
        "dialysis": 0
    },
    {
        "name": "연세건강한내과의원",
        "hurl": "http://www.byhim4u.com/index.asp",
        "lat": 37.490498225,
        "lon": 126.927785599,
        "highblood": "양호",
        "lungCa": 0,
        "stomachCa": 0,
        "liverCa": 0,
        "bowelCa": 0,
        "breastCa": 0,
        "cesarean": 0,
        "antibiotics": 1,
        "injection": 3,
        "diabetes": "양호",
        "asthma": 0,
        "dialysis": 0
    },
    {
        "name": "연세고운피부과의원",
        "hurl": "",
        "lat": 37.4725407924,
        "lon": 126.918944421,
        "highblood": 0,
        "lungCa": 0,
        "stomachCa": 0,
        "liverCa": 0,
        "bowelCa": 0,
        "breastCa": 0,
        "cesarean": 0,
        "antibiotics": 0,
        "injection": 3,
        "diabetes": 0,
        "asthma": 0,
        "dialysis": 0
    },
    {
        "name": "연세내과의원",
        "hurl": "",
        "lat": 37.48281,
        "lon": 126.9533202,
        "highblood": "양호",
        "lungCa": 0,
        "stomachCa": 0,
        "liverCa": 0,
        "bowelCa": 0,
        "breastCa": 0,
        "cesarean": 0,
        "antibiotics": 0,
        "injection": 4,
        "diabetes": "양호",
        "asthma": 0,
        "dialysis": 0
    },
    {
        "name": "연세라온정신과의원",
        "hurl": "",
        "lat": 37.4708056882,
        "lon": 126.933791443,
        "highblood": 0,
        "lungCa": 0,
        "stomachCa": 0,
        "liverCa": 0,
        "bowelCa": 0,
        "breastCa": 0,
        "cesarean": 0,
        "antibiotics": 0,
        "injection": 0,
        "diabetes": 0,
        "asthma": 0,
        "dialysis": 0
    },
    {
        "name": "연세맑은이비인후과의원(관악점)",
        "hurl": "",
        "lat": 37.4866836,
        "lon": 126.9473397,
        "highblood": 0,
        "lungCa": 0,
        "stomachCa": 0,
        "liverCa": 0,
        "bowelCa": 0,
        "breastCa": 0,
        "cesarean": 0,
        "antibiotics": 1,
        "injection": 2,
        "diabetes": 0,
        "asthma": 0,
        "dialysis": 0
    },
    {
        "name": "연세베스트의원",
        "hurl": "",
        "lat": 37.4601775,
        "lon": 126.9193103,
        "highblood": "양호",
        "lungCa": 0,
        "stomachCa": 0,
        "liverCa": 0,
        "bowelCa": 0,
        "breastCa": 0,
        "cesarean": 0,
        "antibiotics": 1,
        "injection": 3,
        "diabetes": "양호",
        "asthma": 0,
        "dialysis": 0
    }
][
    {
        "name": "연세본외과의원",
        "hurl": "",
        "lat": 37.4834715952,
        "lon": 126.943250566,
        "highblood": 0,
        "lungCa": 0,
        "stomachCa": 0,
        "liverCa": 0,
        "bowelCa": 0,
        "breastCa": 0,
        "cesarean": 0,
        "antibiotics": 1,
        "injection": 3,
        "diabetes": 0,
        "asthma": 0,
        "dialysis": 0
    },
    {
        "name": "연세비뇨기과의원",
        "hurl": "",
        "lat": 37.4812449155,
        "lon": 126.91436282,
        "highblood": 0,
        "lungCa": 0,
        "stomachCa": 0,
        "liverCa": 0,
        "bowelCa": 0,
        "breastCa": 0,
        "cesarean": 0,
        "antibiotics": 0,
        "injection": 5,
        "diabetes": 0,
        "asthma": 0,
        "dialysis": 0
    },
    {
        "name": "연세성모정형외과의원",
        "hurl": "",
        "lat": 37.4853725336,
        "lon": 126.955415197,
        "highblood": "양호",
        "lungCa": 0,
        "stomachCa": 0,
        "liverCa": 0,
        "bowelCa": 0,
        "breastCa": 0,
        "cesarean": 0,
        "antibiotics": 1,
        "injection": 5,
        "diabetes": "양호",
        "asthma": 0,
        "dialysis": 0
    },
    {
        "name": "연세소아과의원",
        "hurl": "",
        "lat": 37.485396,
        "lon": 126.9595888,
        "highblood": 0,
        "lungCa": 0,
        "stomachCa": 0,
        "liverCa": 0,
        "bowelCa": 0,
        "breastCa": 0,
        "cesarean": 0,
        "antibiotics": 2,
        "injection": 1,
        "diabetes": 0,
        "asthma": 0,
        "dialysis": 0
    },
    {
        "name": "연세아이보리소아청소년과의원",
        "hurl": "",
        "lat": 37.4763218021,
        "lon": 126.977194761,
        "highblood": 0,
        "lungCa": 0,
        "stomachCa": 0,
        "liverCa": 0,
        "bowelCa": 0,
        "breastCa": 0,
        "cesarean": 0,
        "antibiotics": 1,
        "injection": 1,
        "diabetes": 0,
        "asthma": 0,
        "dialysis": 0
    },
    {
        "name": "연세안과의원",
        "hurl": "",
        "lat": 37.4832959815,
        "lon": 126.953779258,
        "highblood": 0,
        "lungCa": 0,
        "stomachCa": 0,
        "liverCa": 0,
        "bowelCa": 0,
        "breastCa": 0,
        "cesarean": 0,
        "antibiotics": 0,
        "injection": 1,
        "diabetes": 0,
        "asthma": 0,
        "dialysis": 0
    },
    {
        "name": "연세양지가정의원",
        "hurl": "",
        "lat": 37.4705417598,
        "lon": 126.920728172,
        "highblood": "양호",
        "lungCa": 0,
        "stomachCa": 0,
        "liverCa": 0,
        "bowelCa": 0,
        "breastCa": 0,
        "cesarean": 0,
        "antibiotics": 4,
        "injection": 4,
        "diabetes": 0,
        "asthma": 0,
        "dialysis": 0
    },
    {
        "name": "연세우리내과의원",
        "hurl": "",
        "lat": 37.4816543093,
        "lon": 126.928409168,
        "highblood": 0,
        "lungCa": 0,
        "stomachCa": 0,
        "liverCa": 0,
        "bowelCa": 0,
        "breastCa": 0,
        "cesarean": 0,
        "antibiotics": 1,
        "injection": 4,
        "diabetes": 0,
        "asthma": "양호",
        "dialysis": 0
    },
    {
        "name": "연세의원",
        "hurl": "",
        "lat": 37.4815784131,
        "lon": 126.92806101,
        "highblood": 0,
        "lungCa": 0,
        "stomachCa": 0,
        "liverCa": 0,
        "bowelCa": 0,
        "breastCa": 0,
        "cesarean": 0,
        "antibiotics": 4,
        "injection": 4,
        "diabetes": 0,
        "asthma": 0,
        "dialysis": 0
    }
][
    {
        "name": "연세이안과의원",
        "hurl": "",
        "lat": 37.472825725,
        "lon": 126.919256128,
        "highblood": 0,
        "lungCa": 0,
        "stomachCa": 0,
        "liverCa": 0,
        "bowelCa": 0,
        "breastCa": 0,
        "cesarean": 0,
        "antibiotics": 0,
        "injection": 1,
        "diabetes": 0,
        "asthma": 0,
        "dialysis": 0
    },
    {
        "name": "연세인헌가정의학과의원",
        "hurl": "",
        "lat": 37.4721061712,
        "lon": 126.96664192,
        "highblood": 0,
        "lungCa": 0,
        "stomachCa": 0,
        "liverCa": 0,
        "bowelCa": 0,
        "breastCa": 0,
        "cesarean": 0,
        "antibiotics": 2,
        "injection": 4,
        "diabetes": 0,
        "asthma": 0,
        "dialysis": 0
    },
    {
        "name": "연세정형외과의원",
        "hurl": "",
        "lat": 37.4779588264,
        "lon": 126.932238521,
        "highblood": 0,
        "lungCa": 0,
        "stomachCa": 0,
        "liverCa": 0,
        "bowelCa": 0,
        "breastCa": 0,
        "cesarean": 0,
        "antibiotics": 1,
        "injection": 2,
        "diabetes": 0,
        "asthma": 0,
        "dialysis": 0
    },
    {
        "name": "연세키즈소아과의원",
        "hurl": "",
        "lat": 37.489058,
        "lon": 126.948341,
        "highblood": 0,
        "lungCa": 0,
        "stomachCa": 0,
        "liverCa": 0,
        "bowelCa": 0,
        "breastCa": 0,
        "cesarean": 0,
        "antibiotics": 1,
        "injection": 1,
        "diabetes": 0,
        "asthma": 0,
        "dialysis": 0
    },
    {
        "name": "연세탱탱피부과의원",
        "hurl": "",
        "lat": 37.4775256485,
        "lon": 126.963274972,
        "highblood": 0,
        "lungCa": 0,
        "stomachCa": 0,
        "liverCa": 0,
        "bowelCa": 0,
        "breastCa": 0,
        "cesarean": 0,
        "antibiotics": 0,
        "injection": 0,
        "diabetes": 0,
        "asthma": 0,
        "dialysis": 0
    },
    {
        "name": "연세편한내과의원",
        "hurl": "",
        "lat": 37.4705194322,
        "lon": 126.937590013,
        "highblood": "양호",
        "lungCa": 0,
        "stomachCa": 0,
        "liverCa": 0,
        "bowelCa": 0,
        "breastCa": 0,
        "cesarean": 0,
        "antibiotics": 4,
        "injection": 4,
        "diabetes": 0,
        "asthma": 0,
        "dialysis": 0
    },
    {
        "name": "연세피부과의원",
        "hurl": "",
        "lat": 37.4763943578,
        "lon": 126.964510076,
        "highblood": 0,
        "lungCa": 0,
        "stomachCa": 0,
        "liverCa": 0,
        "bowelCa": 0,
        "breastCa": 0,
        "cesarean": 0,
        "antibiotics": 0,
        "injection": 4,
        "diabetes": 0,
        "asthma": 0,
        "dialysis": 0
    },
    {
        "name": "연세필정신과의원",
        "hurl": "",
        "lat": 37.4763218021,
        "lon": 126.977194761,
        "highblood": 0,
        "lungCa": 0,
        "stomachCa": 0,
        "liverCa": 0,
        "bowelCa": 0,
        "breastCa": 0,
        "cesarean": 0,
        "antibiotics": 0,
        "injection": 0,
        "diabetes": 0,
        "asthma": 0,
        "dialysis": 0
    },
    {
        "name": "연세훈정신건강의학과의원",
        "hurl": "",
        "lat": "37.4828100",
        "lon": 126.9533202,
        "highblood": 0,
        "lungCa": 0,
        "stomachCa": 0,
        "liverCa": 0,
        "bowelCa": 0,
        "breastCa": 0,
        "cesarean": 0,
        "antibiotics": 0,
        "injection": 0,
        "diabetes": 0,
        "asthma": 0,
        "dialysis": 0
    }
][
    {
        "name": "열린안과의원",
        "hurl": "",
        "lat": 37.4745146514,
        "lon": 126.917278176,
        "highblood": 0,
        "lungCa": 0,
        "stomachCa": 0,
        "liverCa": 0,
        "bowelCa": 0,
        "breastCa": 0,
        "cesarean": 0,
        "antibiotics": 0,
        "injection": 2,
        "diabetes": 0,
        "asthma": 0,
        "dialysis": 0
    },
    {
        "name": "영락가정의학과의원",
        "hurl": "",
        "lat": 37.4758505816,
        "lon": 126.965984547,
        "highblood": 0,
        "lungCa": 0,
        "stomachCa": 0,
        "liverCa": 0,
        "bowelCa": 0,
        "breastCa": 0,
        "cesarean": 0,
        "antibiotics": 2,
        "injection": 4,
        "diabetes": 0,
        "asthma": 0,
        "dialysis": 0
    },
    {
        "name": "영수통증의학과의원",
        "hurl": "",
        "lat": 37.4849655101,
        "lon": 126.956035046,
        "highblood": 0,
        "lungCa": 0,
        "stomachCa": 0,
        "liverCa": 0,
        "bowelCa": 0,
        "breastCa": 0,
        "cesarean": 0,
        "antibiotics": 0,
        "injection": 1,
        "diabetes": 0,
        "asthma": 0,
        "dialysis": 0
    },
    {
        "name": "오가정의학과의원",
        "hurl": "",
        "lat": 37.4784817031,
        "lon": 126.955640884,
        "highblood": 0,
        "lungCa": 0,
        "stomachCa": 0,
        "liverCa": 0,
        "bowelCa": 0,
        "breastCa": 0,
        "cesarean": 0,
        "antibiotics": 4,
        "injection": 1,
        "diabetes": "양호",
        "asthma": 0,
        "dialysis": 0
    },
    {
        "name": "온누리내과의원",
        "hurl": "",
        "lat": 37.4843718753,
        "lon": 126.928614617,
        "highblood": 0,
        "lungCa": 0,
        "stomachCa": 0,
        "liverCa": 0,
        "bowelCa": 0,
        "breastCa": 0,
        "cesarean": 0,
        "antibiotics": 4,
        "injection": 5,
        "diabetes": "양호",
        "asthma": 0,
        "dialysis": 0
    },
    {
        "name": "우리가정의원",
        "hurl": "",
        "lat": 37.4651459182,
        "lon": 126.931300575,
        "highblood": "양호",
        "lungCa": 0,
        "stomachCa": 0,
        "liverCa": 0,
        "bowelCa": 0,
        "breastCa": 0,
        "cesarean": 0,
        "antibiotics": 1,
        "injection": 2,
        "diabetes": "양호",
        "asthma": 0,
        "dialysis": 0
    },
    {
        "name": "우리가정의학과의원",
        "hurl": "",
        "lat": 37.4751209,
        "lon": 126.9607206,
        "highblood": "양호",
        "lungCa": 0,
        "stomachCa": 0,
        "liverCa": 0,
        "bowelCa": 0,
        "breastCa": 0,
        "cesarean": 0,
        "antibiotics": 1,
        "injection": 2,
        "diabetes": "양호",
        "asthma": 0,
        "dialysis": 0
    },
    {
        "name": "우리들이비인후과의원",
        "hurl": "",
        "lat": 37.4867389,
        "lon": 126.9133442,
        "highblood": 0,
        "lungCa": 0,
        "stomachCa": 0,
        "liverCa": 0,
        "bowelCa": 0,
        "breastCa": 0,
        "cesarean": 0,
        "antibiotics": 4,
        "injection": 3,
        "diabetes": 0,
        "asthma": 0,
        "dialysis": 0
    },
    {
        "name": "우리안과의원",
        "hurl": "",
        "lat": 37.4763723219,
        "lon": 126.977524863,
        "highblood": 0,
        "lungCa": 0,
        "stomachCa": 0,
        "liverCa": 0,
        "bowelCa": 0,
        "breastCa": 0,
        "cesarean": 0,
        "antibiotics": 0,
        "injection": 1,
        "diabetes": 0,
        "asthma": 0,
        "dialysis": 0
    }
][
    {
        "name": "우리정형외과의원",
        "hurl": "",
        "lat": 37.4807417,
        "lon": 126.9144343,
        "highblood": 0,
        "lungCa": 0,
        "stomachCa": 0,
        "liverCa": 0,
        "bowelCa": 0,
        "breastCa": 0,
        "cesarean": 0,
        "antibiotics": 0,
        "injection": 3,
        "diabetes": 0,
        "asthma": 0,
        "dialysis": 0
    },
    {
        "name": "위상오내과의원",
        "hurl": "",
        "lat": 37.4864951574,
        "lon": 126.929458354,
        "highblood": 0,
        "lungCa": 0,
        "stomachCa": 0,
        "liverCa": 0,
        "bowelCa": 0,
        "breastCa": 0,
        "cesarean": 0,
        "antibiotics": 0,
        "injection": 3,
        "diabetes": 0,
        "asthma": 0,
        "dialysis": 0
    },
    {
        "name": "유안과의원",
        "hurl": "",
        "lat": 37.4794584207,
        "lon": 126.955703619,
        "highblood": 0,
        "lungCa": 0,
        "stomachCa": 0,
        "liverCa": 0,
        "bowelCa": 0,
        "breastCa": 0,
        "cesarean": 0,
        "antibiotics": 0,
        "injection": 1,
        "diabetes": 0,
        "asthma": 0,
        "dialysis": 0
    },
    {
        "name": "유영미서울소아청소년과의원",
        "hurl": "",
        "lat": 37.4834509407,
        "lon": 126.953742982,
        "highblood": 0,
        "lungCa": 0,
        "stomachCa": 0,
        "liverCa": 0,
        "bowelCa": 0,
        "breastCa": 0,
        "cesarean": 0,
        "antibiotics": 1,
        "injection": 1,
        "diabetes": 0,
        "asthma": 0,
        "dialysis": 0
    },
    {
        "name": "유이비인후과의원",
        "hurl": "",
        "lat": 37.4825744412,
        "lon": 126.930253484,
        "highblood": 0,
        "lungCa": 0,
        "stomachCa": 0,
        "liverCa": 0,
        "bowelCa": 0,
        "breastCa": 0,
        "cesarean": 0,
        "antibiotics": 4,
        "injection": 2,
        "diabetes": 0,
        "asthma": "양호",
        "dialysis": 0
    },
    {
        "name": "유정신경정신과의원",
        "hurl": "",
        "lat": 37.481089158,
        "lon": 126.950917911,
        "highblood": 0,
        "lungCa": 0,
        "stomachCa": 0,
        "liverCa": 0,
        "bowelCa": 0,
        "breastCa": 0,
        "cesarean": 0,
        "antibiotics": 0,
        "injection": 1,
        "diabetes": 0,
        "asthma": 0,
        "dialysis": 0
    },
    {
        "name": "윤내과의원",
        "hurl": "",
        "lat": 37.4763151556,
        "lon": 126.964799531,
        "highblood": 0,
        "lungCa": 0,
        "stomachCa": 0,
        "liverCa": 0,
        "bowelCa": 0,
        "breastCa": 0,
        "cesarean": 0,
        "antibiotics": 3,
        "injection": 1,
        "diabetes": 0,
        "asthma": 0,
        "dialysis": 0
    },
    {
        "name": "윤주홍의원",
        "hurl": "",
        "lat": 37.4815992573,
        "lon": 126.947041816,
        "highblood": 0,
        "lungCa": 0,
        "stomachCa": 0,
        "liverCa": 0,
        "bowelCa": 0,
        "breastCa": 0,
        "cesarean": 0,
        "antibiotics": 4,
        "injection": 4,
        "diabetes": 0,
        "asthma": 0,
        "dialysis": 0
    },
    {
        "name": "으뜸이비인후과의원",
        "hurl": "",
        "lat": 37.4821678191,
        "lon": 126.914737135,
        "highblood": 0,
        "lungCa": 0,
        "stomachCa": 0,
        "liverCa": 0,
        "bowelCa": 0,
        "breastCa": 0,
        "cesarean": 0,
        "antibiotics": 1,
        "injection": 2,
        "diabetes": 0,
        "asthma": 0,
        "dialysis": 0
    },
    {
        "name": "은진외과의원",
        "hurl": "",
        "lat": 37.4809527224,
        "lon": 126.930417799,
        "highblood": 0,
        "lungCa": 0,
        "stomachCa": 0,
        "liverCa": 0,
        "bowelCa": 0,
        "breastCa": 0,
        "cesarean": 0,
        "antibiotics": 1,
        "injection": 5,
        "diabetes": 0,
        "asthma": 0,
        "dialysis": 0
    }
][
    {
        "name": "이규남내과의원",
        "hurl": "",
        "lat": 37.48376326,
        "lon": 126.942707633,
        "highblood": 0,
        "lungCa": 0,
        "stomachCa": 0,
        "liverCa": 0,
        "bowelCa": 0,
        "breastCa": 0,
        "cesarean": 0,
        "antibiotics": 3,
        "injection": 2,
        "diabetes": 0,
        "asthma": 0,
        "dialysis": 0
    },
    {
        "name": "이기쁨의원",
        "hurl": "",
        "lat": 37.4831336374,
        "lon": 126.925291708,
        "highblood": 0,
        "lungCa": 0,
        "stomachCa": 0,
        "liverCa": 0,
        "bowelCa": 0,
        "breastCa": 0,
        "cesarean": 0,
        "antibiotics": 5,
        "injection": 3,
        "diabetes": 0,
        "asthma": 0,
        "dialysis": 0
    },
    {
        "name": "이내과의원",
        "hurl": "",
        "lat": 37.4729285155,
        "lon": 126.933875487,
        "highblood": "양호",
        "lungCa": 0,
        "stomachCa": 0,
        "liverCa": 0,
        "bowelCa": 0,
        "breastCa": 0,
        "cesarean": 0,
        "antibiotics": 1,
        "injection": 4,
        "diabetes": "양호",
        "asthma": 0,
        "dialysis": 0
    },
    {
        "name": "이성욱이비인후과의원",
        "hurl": "",
        "lat": 37.4833786,
        "lon": 126.9539129,
        "highblood": 0,
        "lungCa": 0,
        "stomachCa": 0,
        "liverCa": 0,
        "bowelCa": 0,
        "breastCa": 0,
        "cesarean": 0,
        "antibiotics": 4,
        "injection": 4,
        "diabetes": 0,
        "asthma": 0,
        "dialysis": 0
    },
    {
        "name": "이은섭소아청소년과의원",
        "hurl": "",
        "lat": 37.4604788968,
        "lon": 126.920178167,
        "highblood": 0,
        "lungCa": 0,
        "stomachCa": 0,
        "liverCa": 0,
        "bowelCa": 0,
        "breastCa": 0,
        "cesarean": 0,
        "antibiotics": 1,
        "injection": 1,
        "diabetes": 0,
        "asthma": 0,
        "dialysis": 0
    },
    {
        "name": "이이비인후과의원",
        "hurl": "",
        "lat": 37.4730418992,
        "lon": 126.919156412,
        "highblood": 0,
        "lungCa": 0,
        "stomachCa": 0,
        "liverCa": 0,
        "bowelCa": 0,
        "breastCa": 0,
        "cesarean": 0,
        "antibiotics": 4,
        "injection": 3,
        "diabetes": 0,
        "asthma": 0,
        "dialysis": 0
    },
    {
        "name": "이정길소아과의원",
        "hurl": "",
        "lat": 37.4809194016,
        "lon": 126.908036308,
        "highblood": 0,
        "lungCa": 0,
        "stomachCa": 0,
        "liverCa": 0,
        "bowelCa": 0,
        "breastCa": 0,
        "cesarean": 0,
        "antibiotics": 2,
        "injection": 1,
        "diabetes": 0,
        "asthma": 0,
        "dialysis": 0
    },
    {
        "name": "이정희소아청소년과의원",
        "hurl": "",
        "lat": 37.4860250305,
        "lon": 126.939571646,
        "highblood": 0,
        "lungCa": 0,
        "stomachCa": 0,
        "liverCa": 0,
        "bowelCa": 0,
        "breastCa": 0,
        "cesarean": 0,
        "antibiotics": 1,
        "injection": 1,
        "diabetes": 0,
        "asthma": 0,
        "dialysis": 0
    },
    {
        "name": "이지정형외과의원",
        "hurl": "http://www.egos.kr/index.asp",
        "lat": 37.4834400087,
        "lon": 126.925336629,
        "highblood": 0,
        "lungCa": 0,
        "stomachCa": 0,
        "liverCa": 0,
        "bowelCa": 0,
        "breastCa": 0,
        "cesarean": 0,
        "antibiotics": 0,
        "injection": 4,
        "diabetes": 0,
        "asthma": 0,
        "dialysis": 0
    },
    {
        "name": "이진내과의원",
        "hurl": "",
        "lat": 37.4775107151,
        "lon": 126.961646977,
        "highblood": "양호",
        "lungCa": 0,
        "stomachCa": 0,
        "liverCa": 0,
        "bowelCa": 0,
        "breastCa": 0,
        "cesarean": 0,
        "antibiotics": 5,
        "injection": 3,
        "diabetes": 0,
        "asthma": 0,
        "dialysis": 0
    }
][
    {
        "name": "이진숙산부인과의원",
        "hurl": "http://www.ljsobgy.com/",
        "lat": 37.4729285155,
        "lon": 126.933875487,
        "highblood": 0,
        "lungCa": 0,
        "stomachCa": 0,
        "liverCa": 0,
        "bowelCa": 0,
        "breastCa": 0,
        "cesarean": 0,
        "antibiotics": 0,
        "injection": 3,
        "diabetes": 0,
        "asthma": 0,
        "dialysis": 0
    },
    {
        "name": "이태인마취통증의학과의원",
        "hurl": "",
        "lat": 37.4829707966,
        "lon": 126.930103871,
        "highblood": 0,
        "lungCa": 0,
        "stomachCa": 0,
        "liverCa": 0,
        "bowelCa": 0,
        "breastCa": 0,
        "cesarean": 0,
        "antibiotics": 0,
        "injection": 1,
        "diabetes": 0,
        "asthma": 0,
        "dialysis": 0
    },
    {
        "name": "이한규내과의원",
        "hurl": "",
        "lat": 37.4900328944,
        "lon": 126.927116645,
        "highblood": 0,
        "lungCa": 0,
        "stomachCa": 0,
        "liverCa": 0,
        "bowelCa": 0,
        "breastCa": 0,
        "cesarean": 0,
        "antibiotics": 1,
        "injection": 5,
        "diabetes": 0,
        "asthma": 0,
        "dialysis": 0
    },
    {
        "name": "일신연세의원",
        "hurl": "",
        "lat": 37.476134491,
        "lon": 126.937522034,
        "highblood": "양호",
        "lungCa": 0,
        "stomachCa": 0,
        "liverCa": 0,
        "bowelCa": 0,
        "breastCa": 0,
        "cesarean": 0,
        "antibiotics": 1,
        "injection": 2,
        "diabetes": "양호",
        "asthma": "양호",
        "dialysis": 0
    },
    {
        "name": "임일재정형외과의원",
        "hurl": "",
        "lat": 37.4738866498,
        "lon": 126.966935059,
        "highblood": 0,
        "lungCa": 0,
        "stomachCa": 0,
        "liverCa": 0,
        "bowelCa": 0,
        "breastCa": 0,
        "cesarean": 0,
        "antibiotics": 0,
        "injection": 5,
        "diabetes": 0,
        "asthma": 0,
        "dialysis": 0
    },
    {
        "name": "정구일정형외과의원",
        "hurl": "",
        "lat": 37.4814591993,
        "lon": 126.948168009,
        "highblood": 0,
        "lungCa": 0,
        "stomachCa": 0,
        "liverCa": 0,
        "bowelCa": 0,
        "breastCa": 0,
        "cesarean": 0,
        "antibiotics": 0,
        "injection": 5,
        "diabetes": 0,
        "asthma": 0,
        "dialysis": 0
    },
    {
        "name": "정내인내과의원",
        "hurl": "",
        "lat": 37.4895707084,
        "lon": 126.925719501,
        "highblood": "양호",
        "lungCa": 0,
        "stomachCa": 0,
        "liverCa": 0,
        "bowelCa": 0,
        "breastCa": 0,
        "cesarean": 0,
        "antibiotics": 1,
        "injection": 2,
        "diabetes": 0,
        "asthma": 0,
        "dialysis": 0
    },
    {
        "name": "정대철정형외과의원",
        "hurl": "",
        "lat": 37.4869982959,
        "lon": 126.947481239,
        "highblood": 0,
        "lungCa": 0,
        "stomachCa": 0,
        "liverCa": 0,
        "bowelCa": 0,
        "breastCa": 0,
        "cesarean": 0,
        "antibiotics": 5,
        "injection": 3,
        "diabetes": 0,
        "asthma": 0,
        "dialysis": 0
    },
    {
        "name": "정병천내과의원",
        "hurl": "",
        "lat": 37.483038369,
        "lon": 126.922858665,
        "highblood": 0,
        "lungCa": 0,
        "stomachCa": 0,
        "liverCa": 0,
        "bowelCa": 0,
        "breastCa": 0,
        "cesarean": 0,
        "antibiotics": 0,
        "injection": 1,
        "diabetes": 0,
        "asthma": 0,
        "dialysis": 1
    }
][
    {
        "name": "정비뇨기과의원",
        "hurl": "",
        "lat": 37.4864036647,
        "lon": 126.956427684,
        "highblood": 0,
        "lungCa": 0,
        "stomachCa": 0,
        "liverCa": 0,
        "bowelCa": 0,
        "breastCa": 0,
        "cesarean": 0,
        "antibiotics": 0,
        "injection": 3,
        "diabetes": 0,
        "asthma": 0,
        "dialysis": 0
    },
    {
        "name": "제오피부과의원",
        "hurl": "",
        "lat": 37.480704569,
        "lon": 126.953495942,
        "highblood": 0,
        "lungCa": 0,
        "stomachCa": 0,
        "liverCa": 0,
        "bowelCa": 0,
        "breastCa": 0,
        "cesarean": 0,
        "antibiotics": 0,
        "injection": 3,
        "diabetes": 0,
        "asthma": 0,
        "dialysis": 0
    },
    {
        "name": "제운성형외과의원",
        "hurl": "",
        "lat": 37.4809490796,
        "lon": 126.952084791,
        "highblood": 0,
        "lungCa": 0,
        "stomachCa": 0,
        "liverCa": 0,
        "bowelCa": 0,
        "breastCa": 0,
        "cesarean": 0,
        "antibiotics": 0,
        "injection": 0,
        "diabetes": 0,
        "asthma": 0,
        "dialysis": 0
    },
    {
        "name": "조내과의원",
        "hurl": "",
        "lat": 37.4866846869,
        "lon": 126.947350298,
        "highblood": "양호",
        "lungCa": 0,
        "stomachCa": 0,
        "liverCa": 0,
        "bowelCa": 0,
        "breastCa": 0,
        "cesarean": 0,
        "antibiotics": 5,
        "injection": 1,
        "diabetes": "양호",
        "asthma": "양호",
        "dialysis": 0
    },
    {
        "name": "조은정형외과의원",
        "hurl": "",
        "lat": 37.4864575744,
        "lon": 126.947219297,
        "highblood": 0,
        "lungCa": 0,
        "stomachCa": 0,
        "liverCa": 0,
        "bowelCa": 0,
        "breastCa": 0,
        "cesarean": 0,
        "antibiotics": 0,
        "injection": 2,
        "diabetes": 0,
        "asthma": 0,
        "dialysis": 0
    },
    {
        "name": "조일형정형외과의원",
        "hurl": "",
        "lat": 37.4628863296,
        "lon": 126.931555838,
        "highblood": 0,
        "lungCa": 0,
        "stomachCa": 0,
        "liverCa": 0,
        "bowelCa": 0,
        "breastCa": 0,
        "cesarean": 0,
        "antibiotics": 0,
        "injection": 4,
        "diabetes": 0,
        "asthma": 0,
        "dialysis": 0
    },
    {
        "name": "주인종내과의원",
        "hurl": "",
        "lat": 37.4825744412,
        "lon": 126.930253484,
        "highblood": "양호",
        "lungCa": 0,
        "stomachCa": 0,
        "liverCa": 0,
        "bowelCa": 0,
        "breastCa": 0,
        "cesarean": 0,
        "antibiotics": 4,
        "injection": 4,
        "diabetes": 0,
        "asthma": 0,
        "dialysis": 0
    },
    {
        "name": "주함정형외과의원",
        "hurl": "",
        "lat": 37.4854177499,
        "lon": 126.918559649,
        "highblood": 0,
        "lungCa": 0,
        "stomachCa": 0,
        "liverCa": 0,
        "bowelCa": 0,
        "breastCa": 0,
        "cesarean": 0,
        "antibiotics": 5,
        "injection": 4,
        "diabetes": 0,
        "asthma": 0,
        "dialysis": 0
    },
    {
        "name": "지에스항외과의원",
        "hurl": "",
        "lat": 37.4849709382,
        "lon": 126.936307121,
        "highblood": 0,
        "lungCa": 0,
        "stomachCa": 0,
        "liverCa": 0,
        "bowelCa": 0,
        "breastCa": 0,
        "cesarean": 0,
        "antibiotics": 0,
        "injection": 3,
        "diabetes": 0,
        "asthma": 0,
        "dialysis": 0
    },
    {
        "name": "진앤미의원",
        "hurl": "",
        "lat": 37.4796380963,
        "lon": 126.94579503,
        "highblood": 0,
        "lungCa": 0,
        "stomachCa": 0,
        "liverCa": 0,
        "bowelCa": 0,
        "breastCa": 0,
        "cesarean": 0,
        "antibiotics": 0,
        "injection": 5,
        "diabetes": 0,
        "asthma": 0,
        "dialysis": 0
    }
][
    {
        "name": "차이마취통증의학과의원",
        "hurl": "",
        "lat": 37.4814759937,
        "lon": 126.953907009,
        "highblood": 0,
        "lungCa": 0,
        "stomachCa": 0,
        "liverCa": 0,
        "bowelCa": 0,
        "breastCa": 0,
        "cesarean": 0,
        "antibiotics": 0,
        "injection": 5,
        "diabetes": 0,
        "asthma": 0,
        "dialysis": 0
    },
    {
        "name": "참맑은의원",
        "hurl": "",
        "lat": 37.4861425,
        "lon": 126.9472933,
        "highblood": 0,
        "lungCa": 0,
        "stomachCa": 0,
        "liverCa": 0,
        "bowelCa": 0,
        "breastCa": 0,
        "cesarean": 0,
        "antibiotics": 0,
        "injection": 3,
        "diabetes": 0,
        "asthma": 0,
        "dialysis": 0
    },
    {
        "name": "참비뇨기과의원",
        "hurl": "",
        "lat": 37.4738911911,
        "lon": 126.917333127,
        "highblood": 0,
        "lungCa": 0,
        "stomachCa": 0,
        "liverCa": 0,
        "bowelCa": 0,
        "breastCa": 0,
        "cesarean": 0,
        "antibiotics": 0,
        "injection": 2,
        "diabetes": 0,
        "asthma": 0,
        "dialysis": 0
    },
    {
        "name": "참의원",
        "hurl": "",
        "lat": 37.4853490922,
        "lon": 126.918297407,
        "highblood": 0,
        "lungCa": 0,
        "stomachCa": 0,
        "liverCa": 0,
        "bowelCa": 0,
        "breastCa": 0,
        "cesarean": 0,
        "antibiotics": 1,
        "injection": 5,
        "diabetes": 0,
        "asthma": 0,
        "dialysis": 0
    },
    {
        "name": "참하지외과의원",
        "hurl": "",
        "lat": 37.4814759937,
        "lon": 126.953907009,
        "highblood": 0,
        "lungCa": 0,
        "stomachCa": 0,
        "liverCa": 0,
        "bowelCa": 0,
        "breastCa": 0,
        "cesarean": 0,
        "antibiotics": 0,
        "injection": 1,
        "diabetes": 0,
        "asthma": 0,
        "dialysis": 0
    },