[
    {
        "name": "강북삼성병원",
        "hurl": "http://www.kbsmc.co.kr",
        "lat": 37.5688670052,
        "lon": 126.967812251,
        "highblood": 0,
        "lungCa": 1,
        "stomachCa": 1,
        "liverCa": 1,
        "bowelCa": 1,
        "breastCa": 1,
        "cesarean": 2,
        "antibiotics": 1,
        "injection": 1,
        "diabetes": 0,
        "asthma": 0,
        "dialysis": 1
    },
    {
        "name": "서울적십자병원",
        "hurl": "http://www.srch.or.kr",
        "lat": 37.5670015,
        "lon": 126.967035,
        "highblood": 0,
        "lungCa": 0,
        "stomachCa": 5,
        "liverCa": 0,
        "bowelCa": 0,
        "breastCa": 0,
        "cesarean": 0,
        "antibiotics": 1,
        "injection": 2,
        "diabetes": 0,
        "asthma": 0,
        "dialysis": 2
    },
    {
        "name": "(사)한국의료관광융합연구원 서울의원",
        "hurl": "",
        "lat": 37.5711419015,
        "lon": 126.999950193,
        "highblood": 0,
        "lungCa": 0,
        "stomachCa": 0,
        "liverCa": 0,
        "bowelCa": 0,
        "breastCa": 0,
        "cesarean": 0,
        "antibiotics": 1,
        "injection": 2,
        "diabetes": 0,
        "asthma": 0,
        "dialysis": 0
    }
][
    {
        "name": "강남의원",
        "hurl": "",
        "lat": 37.5812511676,
        "lon": 126.97127122,
        "highblood": 0,
        "lungCa": 0,
        "stomachCa": 0,
        "liverCa": 0,
        "bowelCa": 0,
        "breastCa": 0,
        "cesarean": 0,
        "antibiotics": 0,
        "injection": 1,
        "diabetes": 0,
        "asthma": 0,
        "dialysis": 0
    },
    {
        "name": "고려튼튼정형외과의원",
        "hurl": "",
        "lat": 37.570919642,
        "lon": 126.962296422,
        "highblood": 0,
        "lungCa": 0,
        "stomachCa": 0,
        "liverCa": 0,
        "bowelCa": 0,
        "breastCa": 0,
        "cesarean": 0,
        "antibiotics": 0,
        "injection": 2,
        "diabetes": 0,
        "asthma": 0,
        "dialysis": 0
    },
    {
        "name": "공안과의원",
        "hurl": "https://www.kongeye.co.kr/default_index.asp",
        "lat": 37.5713536699,
        "lon": 126.985696374,
        "highblood": 0,
        "lungCa": 0,
        "stomachCa": 0,
        "liverCa": 0,
        "bowelCa": 0,
        "breastCa": 0,
        "cesarean": 0,
        "antibiotics": 0,
        "injection": 1,
        "diabetes": 0,
        "asthma": 0,
        "dialysis": 0
    },
    {
        "name": "곽내과의원",
        "hurl": "",
        "lat": 37.5812511676,
        "lon": 126.97127122,
        "highblood": 0,
        "lungCa": 0,
        "stomachCa": 0,
        "liverCa": 0,
        "bowelCa": 0,
        "breastCa": 0,
        "cesarean": 0,
        "antibiotics": 0,
        "injection": 2,
        "diabetes": "양호",
        "asthma": 0,
        "dialysis": 0
    },
    {
        "name": "광화문닥터김이비인후과의원",
        "hurl": "",
        "lat": 37.5706061418,
        "lon": 126.976341975,
        "highblood": 0,
        "lungCa": 0,
        "stomachCa": 0,
        "liverCa": 0,
        "bowelCa": 0,
        "breastCa": 0,
        "cesarean": 0,
        "antibiotics": 3,
        "injection": 1,
        "diabetes": 0,
        "asthma": 0,
        "dialysis": 0
    }
][
    {
        "name": "김앤박차이의원",
        "hurl": "http://chypain.com/",
        "lat": 37.5713190006,
        "lon": 126.972945829,
        "highblood": 0,
        "lungCa": 0,
        "stomachCa": 0,
        "liverCa": 0,
        "bowelCa": 0,
        "breastCa": 0,
        "cesarean": 0,
        "antibiotics": 0,
        "injection": 1,
        "diabetes": 0,
        "asthma": 0,
        "dialysis": 0
    },
    {
        "name": "꽃길의원",
        "hurl": "",
        "lat": 37.5713328992,
        "lon": 127.001770407,
        "highblood": 0,
        "lungCa": 0,
        "stomachCa": 0,
        "liverCa": 0,
        "bowelCa": 0,
        "breastCa": 0,
        "cesarean": 0,
        "antibiotics": 2,
        "injection": 5,
        "diabetes": 0,
        "asthma": 0,
        "dialysis": 0
    }
][
    {
        "name": "대동외과의원",
        "hurl": "",
        "lat": 37.5717793747,
        "lon": 127.01009274,
        "highblood": 0,
        "lungCa": 0,
        "stomachCa": 0,
        "liverCa": 0,
        "bowelCa": 0,
        "breastCa": 0,
        "cesarean": 0,
        "antibiotics": 0,
        "injection": 4,
        "diabetes": 0,
        "asthma": 0,
        "dialysis": 0
    },
    {
        "name": "대학로서울안과의원",
        "hurl": "",
        "lat": 37.5842495483,
        "lon": 127.002028848,
        "highblood": 0,
        "lungCa": 0,
        "stomachCa": 0,
        "liverCa": 0,
        "bowelCa": 0,
        "breastCa": 0,
        "cesarean": 0,
        "antibiotics": 0,
        "injection": 1,
        "diabetes": 0,
        "asthma": 0,
        "dialysis": 0
    },
    {
        "name": "더블유항외과의원",
        "hurl": "",
        "lat": 37.5705751633,
        "lon": 126.985316183,
        "highblood": 0,
        "lungCa": 0,
        "stomachCa": 0,
        "liverCa": 0,
        "bowelCa": 0,
        "breastCa": 0,
        "cesarean": 0,
        "antibiotics": 0,
        "injection": 3,
        "diabetes": 0,
        "asthma": 0,
        "dialysis": 0
    },
    {
        "name": "더하얀세상의원",
        "hurl": "",
        "lat": 37.5706061418,
        "lon": 126.976341975,
        "highblood": 0,
        "lungCa": 0,
        "stomachCa": 0,
        "liverCa": 0,
        "bowelCa": 0,
        "breastCa": 0,
        "cesarean": 0,
        "antibiotics": 0,
        "injection": 2,
        "diabetes": 0,
        "asthma": 0,
        "dialysis": 0
    }
][
    {
        "name": "두리원비뇨기과의원",
        "hurl": "",
        "lat": 37.5713328992,
        "lon": 127.001770407,
        "highblood": 0,
        "lungCa": 0,
        "stomachCa": 0,
        "liverCa": 0,
        "bowelCa": 0,
        "breastCa": 0,
        "cesarean": 0,
        "antibiotics": 0,
        "injection": 4,
        "diabetes": 0,
        "asthma": 0,
        "dialysis": 0
    },
    {
        "name": "라미에르의원",
        "hurl": "",
        "lat": 37.5704494,
        "lon": 126.9787326,
        "highblood": 0,
        "lungCa": 0,
        "stomachCa": 0,
        "liverCa": 0,
        "bowelCa": 0,
        "breastCa": 0,
        "cesarean": 0,
        "antibiotics": 0,
        "injection": 2,
        "diabetes": 0,
        "asthma": 0,
        "dialysis": 0
    },
    {
        "name": "로앤산부인과의원",
        "hurl": "",
        "lat": 37.5698796828,
        "lon": 126.986040769,
        "highblood": 0,
        "lungCa": 0,
        "stomachCa": 0,
        "liverCa": 0,
        "bowelCa": 0,
        "breastCa": 0,
        "cesarean": 0,
        "antibiotics": 4,
        "injection": 2,
        "diabetes": 0,
        "asthma": 0,
        "dialysis": 0
    },
    {
        "name": "리벤스이비인후과의원",
        "hurl": "",
        "lat": 37.5689534444,
        "lon": 126.985914165,
        "highblood": 0,
        "lungCa": 0,
        "stomachCa": 0,
        "liverCa": 0,
        "bowelCa": 0,
        "breastCa": 0,
        "cesarean": 0,
        "antibiotics": 1,
        "injection": 2,
        "diabetes": 0,
        "asthma": 0,
        "dialysis": 0
    }
][
    {
        "name": "마로니에이비인후과의원",
        "hurl": "http://www.m-ent.net",
        "lat": 37.5827034415,
        "lon": 127.002155606,
        "highblood": 0,
        "lungCa": 0,
        "stomachCa": 0,
        "liverCa": 0,
        "bowelCa": 0,
        "breastCa": 0,
        "cesarean": 0,
        "antibiotics": 3,
        "injection": 1,
        "diabetes": 0,
        "asthma": "양호",
        "dialysis": 0
    },
    {
        "name": "마음공간정신건강의학과의원",
        "hurl": "",
        "lat": 37.5706061418,
        "lon": 126.976341975,
        "highblood": 0,
        "lungCa": 0,
        "stomachCa": 0,
        "liverCa": 0,
        "bowelCa": 0,
        "breastCa": 0,
        "cesarean": 0,
        "antibiotics": 0,
        "injection": 0,
        "diabetes": 0,
        "asthma": 0,
        "dialysis": 0
    },
    {
        "name": "메디홈가정의학과의원",
        "hurl": "http://www.medihome.kr",
        "lat": 37.5705087814,
        "lon": 126.976079391,
        "highblood": 0,
        "lungCa": 0,
        "stomachCa": 0,
        "liverCa": 0,
        "bowelCa": 0,
        "breastCa": 0,
        "cesarean": 0,
        "antibiotics": 2,
        "injection": 4,
        "diabetes": 0,
        "asthma": 0,
        "dialysis": 0
    },
    {
        "name": "미소안과의원",
        "hurl": "http://niceclinic.co.kr/index.asp",
        "lat": 37.5712896626,
        "lon": 127.000710879,
        "highblood": 0,
        "lungCa": 0,
        "stomachCa": 0,
        "liverCa": 0,
        "bowelCa": 0,
        "breastCa": 0,
        "cesarean": 0,
        "antibiotics": 0,
        "injection": 2,
        "diabetes": 0,
        "asthma": 0,
        "dialysis": 0
    }
][
    {
        "name": "박민규이비인후과의원",
        "hurl": "",
        "lat": 37.5769144928,
        "lon": 127.015237506,
        "highblood": 0,
        "lungCa": 0,
        "stomachCa": 0,
        "liverCa": 0,
        "bowelCa": 0,
        "breastCa": 0,
        "cesarean": 0,
        "antibiotics": 5,
        "injection": 1,
        "diabetes": 0,
        "asthma": 0,
        "dialysis": 0
    },
    {
        "name": "방익수내과의원",
        "hurl": "",
        "lat": 37.5727311,
        "lon": 127.0160962,
        "highblood": "양호",
        "lungCa": 0,
        "stomachCa": 0,
        "liverCa": 0,
        "bowelCa": 0,
        "breastCa": 0,
        "cesarean": 0,
        "antibiotics": 0,
        "injection": 3,
        "diabetes": "양호",
        "asthma": 0,
        "dialysis": 0
    },
    {
        "name": "백내과의원",
        "hurl": "",
        "lat": 37.5698751544,
        "lon": 126.979674673,
        "highblood": 0,
        "lungCa": 0,
        "stomachCa": 0,
        "liverCa": 0,
        "bowelCa": 0,
        "breastCa": 0,
        "cesarean": 0,
        "antibiotics": 5,
        "injection": 1,
        "diabetes": 0,
        "asthma": 0,
        "dialysis": 0
    }
][
    {
        "name": "보람연합의원",
        "hurl": "",
        "lat": 37.5711310895,
        "lon": 127.000153948,
        "highblood": 0,
        "lungCa": 0,
        "stomachCa": 0,
        "liverCa": 0,
        "bowelCa": 0,
        "breastCa": 0,
        "cesarean": 0,
        "antibiotics": 2,
        "injection": 4,
        "diabetes": 0,
        "asthma": 0,
        "dialysis": 0
    },
    {
        "name": "비앤비클리닉의원",
        "hurl": "http://www.bnbclinic.co.kr/",
        "lat": 37.5740601162,
        "lon": 127.015436159,
        "highblood": 0,
        "lungCa": 0,
        "stomachCa": 0,
        "liverCa": 0,
        "bowelCa": 0,
        "breastCa": 0,
        "cesarean": 0,
        "antibiotics": 0,
        "injection": 3,
        "diabetes": 0,
        "asthma": 0,
        "dialysis": 0
    },
    {
        "name": "비타피부과의원",
        "hurl": "",
        "lat": 37.6068639865,
        "lon": 126.969005408,
        "highblood": 0,
        "lungCa": 0,
        "stomachCa": 0,
        "liverCa": 0,
        "bowelCa": 0,
        "breastCa": 0,
        "cesarean": 0,
        "antibiotics": 0,
        "injection": 3,
        "diabetes": 0,
        "asthma": 0,
        "dialysis": 0
    },
    {
        "name": "뽀얀피부과의원",
        "hurl": "http://www.poyan.co.kr/",
        "lat": 37.57015053,
        "lon": 126.991917834,
        "highblood": 0,
        "lungCa": 0,
        "stomachCa": 0,
        "liverCa": 0,
        "bowelCa": 0,
        "breastCa": 0,
        "cesarean": 0,
        "antibiotics": 0,
        "injection": 5,
        "diabetes": 0,
        "asthma": 0,
        "dialysis": 0
    },
    {
        "name": "삼성드림이비인후과의원",
        "hurl": "",
        "lat": 37.5699120126,
        "lon": 126.985171423,
        "highblood": 0,
        "lungCa": 0,
        "stomachCa": 0,
        "liverCa": 0,
        "bowelCa": 0,
        "breastCa": 0,
        "cesarean": 0,
        "antibiotics": 5,
        "injection": 2,
        "diabetes": 0,
        "asthma": 0,
        "dialysis": 0
    },
    {
        "name": "삼성화인마취통증의학과의원",
        "hurl": "",
        "lat": 37.5724825692,
        "lon": 127.001756851,
        "highblood": 0,
        "lungCa": 0,
        "stomachCa": 0,
        "liverCa": 0,
        "bowelCa": 0,
        "breastCa": 0,
        "cesarean": 0,
        "antibiotics": 0,
        "injection": 0,
        "diabetes": 0,
        "asthma": 0,
        "dialysis": 0
    }
][
    {
        "name": "새얀안과의원",
        "hurl": "http://www.lasik1004.co.kr/",
        "lat": 37.5699050591,
        "lon": 126.987358357,
        "highblood": 0,
        "lungCa": 0,
        "stomachCa": 0,
        "liverCa": 0,
        "bowelCa": 0,
        "breastCa": 0,
        "cesarean": 0,
        "antibiotics": 0,
        "injection": 1,
        "diabetes": 0,
        "asthma": 0,
        "dialysis": 0
    },
    {
        "name": "서울가정의학과의원",
        "hurl": "",
        "lat": 37.5741754,
        "lon": 126.9602105,
        "highblood": "양호",
        "lungCa": 0,
        "stomachCa": 0,
        "liverCa": 0,
        "bowelCa": 0,
        "breastCa": 0,
        "cesarean": 0,
        "antibiotics": 1,
        "injection": 3,
        "diabetes": "양호",
        "asthma": "양호",
        "dialysis": 0
    },
    {
        "name": "서울듀크의원",
        "hurl": "",
        "lat": 37.5763378335,
        "lon": 126.984586012,
        "highblood": "양호",
        "lungCa": 0,
        "stomachCa": 0,
        "liverCa": 0,
        "bowelCa": 0,
        "breastCa": 0,
        "cesarean": 0,
        "antibiotics": 1,
        "injection": 3,
        "diabetes": 0,
        "asthma": 0,
        "dialysis": 0
    }
][
    {
        "name": "서울케이(K)내과의원",
        "hurl": "",
        "lat": 37.58411982,
        "lon": 127.000806103,
        "highblood": 0,
        "lungCa": 0,
        "stomachCa": 0,
        "liverCa": 0,
        "bowelCa": 0,
        "breastCa": 0,
        "cesarean": 0,
        "antibiotics": 1,
        "injection": 1,
        "diabetes": 0,
        "asthma": 0,
        "dialysis": 2
    },
    {
        "name": "성도가정의학과의원",
        "hurl": "",
        "lat": 37.5706049047,
        "lon": 126.99907179,
        "highblood": 0,
        "lungCa": 0,
        "stomachCa": 0,
        "liverCa": 0,
        "bowelCa": 0,
        "breastCa": 0,
        "cesarean": 0,
        "antibiotics": 4,
        "injection": 5,
        "diabetes": 0,
        "asthma": 0,
        "dialysis": 0
    },
    {
        "name": "성혜내과의원",
        "hurl": "",
        "lat": 37.5703533639,
        "lon": 126.973969469,
        "highblood": 0,
        "lungCa": 0,
        "stomachCa": 0,
        "liverCa": 0,
        "bowelCa": 0,
        "breastCa": 0,
        "cesarean": 0,
        "antibiotics": 4,
        "injection": 3,
        "diabetes": 0,
        "asthma": 0,
        "dialysis": 0
    },
    {
        "name": "소화연세소아청소년과의원",
        "hurl": "",
        "lat": 37.5767378332,
        "lon": 127.015731046,
        "highblood": 0,
        "lungCa": 0,
        "stomachCa": 0,
        "liverCa": 0,
        "bowelCa": 0,
        "breastCa": 0,
        "cesarean": 0,
        "antibiotics": 1,
        "injection": 1,
        "diabetes": 0,
        "asthma": 0,
        "dialysis": 0
    },
    {
        "name": "송달옥비뇨기과의원",
        "hurl": "",
        "lat": 37.5717028674,
        "lon": 126.982784856,
        "highblood": 0,
        "lungCa": 0,
        "stomachCa": 0,
        "liverCa": 0,
        "bowelCa": 0,
        "breastCa": 0,
        "cesarean": 0,
        "antibiotics": 0,
        "injection": 5,
        "diabetes": 0,
        "asthma": 0,
        "dialysis": 0
    }
][
    {
        "name": "신도의원",
        "hurl": "",
        "lat": 37.5736739947,
        "lon": 127.01885022,
        "highblood": 0,
        "lungCa": 0,
        "stomachCa": 0,
        "liverCa": 0,
        "bowelCa": 0,
        "breastCa": 0,
        "cesarean": 0,
        "antibiotics": 2,
        "injection": 5,
        "diabetes": 0,
        "asthma": 0,
        "dialysis": 0
    },
    {
        "name": "신영연세의원",
        "hurl": "",
        "lat": 37.6060164166,
        "lon": 126.966659221,
        "highblood": "양호",
        "lungCa": 0,
        "stomachCa": 0,
        "liverCa": 0,
        "bowelCa": 0,
        "breastCa": 0,
        "cesarean": 0,
        "antibiotics": 3,
        "injection": 4,
        "diabetes": 0,
        "asthma": "양호",
        "dialysis": 0
    },
    {
        "name": "신중호내과의원",
        "hurl": "",
        "lat": 37.5756819054,
        "lon": 127.01544555,
        "highblood": "양호",
        "lungCa": 0,
        "stomachCa": 0,
        "liverCa": 0,
        "bowelCa": 0,
        "breastCa": 0,
        "cesarean": 0,
        "antibiotics": 1,
        "injection": 3,
        "diabetes": 0,
        "asthma": 0,
        "dialysis": 0
    },
    {
        "name": "연세메트로비뇨기과의원",
        "hurl": "http://www.clinicmetro.com/",
        "lat": 37.5704772,
        "lon": 126.9745089,
        "highblood": 0,
        "lungCa": 0,
        "stomachCa": 0,
        "liverCa": 0,
        "bowelCa": 0,
        "breastCa": 0,
        "cesarean": 0,
        "antibiotics": 0,
        "injection": 5,
        "diabetes": 0,
        "asthma": 0,
        "dialysis": 0
    }
][
    {
        "name": "연세베스트안과의원",
        "hurl": "",
        "lat": 37.5732600458,
        "lon": 127.015336378,
        "highblood": 0,
        "lungCa": 0,
        "stomachCa": 0,
        "liverCa": 0,
        "bowelCa": 0,
        "breastCa": 0,
        "cesarean": 0,
        "antibiotics": 0,
        "injection": 1,
        "diabetes": 0,
        "asthma": 0,
        "dialysis": 0
    },
    {
        "name": "연세센스이비인후과의원",
        "hurl": "",
        "lat": 37.5706081272,
        "lon": 126.990464344,
        "highblood": 0,
        "lungCa": 0,
        "stomachCa": 0,
        "liverCa": 0,
        "bowelCa": 0,
        "breastCa": 0,
        "cesarean": 0,
        "antibiotics": 3,
        "injection": 2,
        "diabetes": 0,
        "asthma": 0,
        "dialysis": 0
    },
    {
        "name": "연세에스웰피부과의원",
        "hurl": "http://www.swellskin.com/",
        "lat": 37.5704494,
        "lon": 126.9787326,
        "highblood": 0,
        "lungCa": 0,
        "stomachCa": 0,
        "liverCa": 0,
        "bowelCa": 0,
        "breastCa": 0,
        "cesarean": 0,
        "antibiotics": 0,
        "injection": 4,
        "diabetes": 0,
        "asthma": 0,
        "dialysis": 0
    }
][
    {
        "name": "연세종로신경외과의원",
        "hurl": "",
        "lat": 37.5712680187,
        "lon": 127.002286585,
        "highblood": 0,
        "lungCa": 0,
        "stomachCa": 0,
        "liverCa": 0,
        "bowelCa": 0,
        "breastCa": 0,
        "cesarean": 0,
        "antibiotics": 0,
        "injection": 1,
        "diabetes": 0,
        "asthma": 0,
        "dialysis": 0
    },
    {
        "name": "예림이비인후과의원",
        "hurl": "",
        "lat": 37.5709618,
        "lon": "126.9814380",
        "highblood": 0,
        "lungCa": 0,
        "stomachCa": 0,
        "liverCa": 0,
        "bowelCa": 0,
        "breastCa": 0,
        "cesarean": 0,
        "antibiotics": 3,
        "injection": 1,
        "diabetes": 0,
        "asthma": 0,
        "dialysis": 0
    },
    {
        "name": "예풍의원·한의원",
        "hurl": "",
        "lat": 37.5730916252,
        "lon": 126.997351119,
        "highblood": 0,
        "lungCa": 0,
        "stomachCa": 0,
        "liverCa": 0,
        "bowelCa": 0,
        "breastCa": 0,
        "cesarean": 0,
        "antibiotics": 1,
        "injection": 3,
        "diabetes": 0,
        "asthma": 0,
        "dialysis": 0
    },
    {
        "name": "우리의원",
        "hurl": "",
        "lat": 37.5737579282,
        "lon": 127.01045525,
        "highblood": 0,
        "lungCa": 0,
        "stomachCa": 0,
        "liverCa": 0,
        "bowelCa": 0,
        "breastCa": 0,
        "cesarean": 0,
        "antibiotics": 1,
        "injection": 3,
        "diabetes": 0,
        "asthma": 0,
        "dialysis": 0
    },
    {
        "name": "우정의원",
        "hurl": "",
        "lat": 37.6066842645,
        "lon": 126.958781188,
        "highblood": 0,
        "lungCa": 0,
        "stomachCa": 0,
        "liverCa": 0,
        "bowelCa": 0,
        "breastCa": 0,
        "cesarean": 0,
        "antibiotics": 5,
        "injection": 1,
        "diabetes": 0,
        "asthma": 0,
        "dialysis": 0
    }
][
    {
        "name": "웅선의원",
        "hurl": "",
        "lat": 37.576305523,
        "lon": 126.985577693,
        "highblood": 0,
        "lungCa": 0,
        "stomachCa": 0,
        "liverCa": 0,
        "bowelCa": 0,
        "breastCa": 0,
        "cesarean": 0,
        "antibiotics": 0,
        "injection": 2,
        "diabetes": 0,
        "asthma": 0,
        "dialysis": 0
    },
    {
        "name": "원비뇨기과의원",
        "hurl": "",
        "lat": 37.570357054,
        "lon": 126.974363389,
        "highblood": 0,
        "lungCa": 0,
        "stomachCa": 0,
        "liverCa": 0,
        "bowelCa": 0,
        "breastCa": 0,
        "cesarean": 0,
        "antibiotics": 0,
        "injection": 5,
        "diabetes": 0,
        "asthma": 0,
        "dialysis": 0
    },
    {
        "name": "유정이비인후과의원",
        "hurl": "",
        "lat": 37.5704868832,
        "lon": 126.974761795,
        "highblood": 0,
        "lungCa": 0,
        "stomachCa": 0,
        "liverCa": 0,
        "bowelCa": 0,
        "breastCa": 0,
        "cesarean": 0,
        "antibiotics": 3,
        "injection": 1,
        "diabetes": 0,
        "asthma": 0,
        "dialysis": 0
    },
    {
        "name": "의료법인하나로의료재단하나로의원",
        "hurl": "http://www.hanaromf.com/",
        "lat": 37.5704532,
        "lon": 126.9804455,
        "highblood": 0,
        "lungCa": 0,
        "stomachCa": 0,
        "liverCa": 0,
        "bowelCa": 0,
        "breastCa": 0,
        "cesarean": 0,
        "antibiotics": 0,
        "injection": 1,
        "diabetes": 0,
        "asthma": 0,
        "dialysis": 0
    },
    {
        "name": "이상연신경정신과의원",
        "hurl": "",
        "lat": 37.568595721,
        "lon": 126.964380349,
        "highblood": 0,
        "lungCa": 0,
        "stomachCa": 0,
        "liverCa": 0,
        "bowelCa": 0,
        "breastCa": 0,
        "cesarean": 0,
        "antibiotics": 0,
        "injection": 0,
        "diabetes": 0,
        "asthma": 0,
        "dialysis": 0
    }
][
    {
        "name": "이성호가정의학과의원",
        "hurl": "",
        "lat": 37.5757855703,
        "lon": 127.020960877,
        "highblood": "양호",
        "lungCa": 0,
        "stomachCa": 0,
        "liverCa": 0,
        "bowelCa": 0,
        "breastCa": 0,
        "cesarean": 0,
        "antibiotics": 1,
        "injection": 3,
        "diabetes": 0,
        "asthma": "양호",
        "dialysis": 0
    },
    {
        "name": "이지스의원",
        "hurl": "",
        "lat": 37.5718380511,
        "lon": 126.973285235,
        "highblood": 0,
        "lungCa": 0,
        "stomachCa": 0,
        "liverCa": 0,
        "bowelCa": 0,
        "breastCa": 0,
        "cesarean": 0,
        "antibiotics": 0,
        "injection": 4,
        "diabetes": 0,
        "asthma": 0,
        "dialysis": 0
    },
    {
        "name": "이화미피부과의원",
        "hurl": "",
        "lat": 37.5763789673,
        "lon": 126.972857962,
        "highblood": 0,
        "lungCa": 0,
        "stomachCa": 0,
        "liverCa": 0,
        "bowelCa": 0,
        "breastCa": 0,
        "cesarean": 0,
        "antibiotics": 0,
        "injection": 4,
        "diabetes": 0,
        "asthma": 0,
        "dialysis": 0
    },
    {
        "name": "임계원정신건강의학과의원",
        "hurl": "",
        "lat": 37.5864876314,
        "lon": 127.000511756,
        "highblood": 0,
        "lungCa": 0,
        "stomachCa": 0,
        "liverCa": 0,
        "bowelCa": 0,
        "breastCa": 0,
        "cesarean": 0,
        "antibiotics": 0,
        "injection": 0,
        "diabetes": 0,
        "asthma": 0,
        "dialysis": 0
    },
    {
        "name": "재단법인푸르메 푸르메의원",
        "hurl": "",
        "lat": 37.5840259048,
        "lon": 126.969974956,
        "highblood": 0,
        "lungCa": 0,
        "stomachCa": 0,
        "liverCa": 0,
        "bowelCa": 0,
        "breastCa": 0,
        "cesarean": 0,
        "antibiotics": 0,
        "injection": 0,
        "diabetes": 0,
        "asthma": 0,
        "dialysis": 0
    }
][
    {
        "name": "정부서울청사부속의원",
        "hurl": "",
        "lat": 37.5749212,
        "lon": 126.9752218,
        "highblood": "양호",
        "lungCa": 0,
        "stomachCa": 0,
        "liverCa": 0,
        "bowelCa": 0,
        "breastCa": 0,
        "cesarean": 0,
        "antibiotics": 1,
        "injection": 1,
        "diabetes": 0,
        "asthma": 0,
        "dialysis": 0
    },
    {
        "name": "정재원더블유(W)산부인과의원",
        "hurl": "",
        "lat": 37.5738101,
        "lon": 127.0162545,
        "highblood": 0,
        "lungCa": 0,
        "stomachCa": 0,
        "liverCa": 0,
        "bowelCa": 0,
        "breastCa": 0,
        "cesarean": 0,
        "antibiotics": 0,
        "injection": 3,
        "diabetes": 0,
        "asthma": 0,
        "dialysis": 0
    },
    {
        "name": "제중안과의원",
        "hurl": "http://www.lasikcenter.co.kr/",
        "lat": 37.5763789673,
        "lon": 126.972857962,
        "highblood": 0,
        "lungCa": 0,
        "stomachCa": 0,
        "liverCa": 0,
        "bowelCa": 0,
        "breastCa": 0,
        "cesarean": 0,
        "antibiotics": 0,
        "injection": 1,
        "diabetes": 0,
        "asthma": 0,
        "dialysis": 0
    },
    {
        "name": "종로기대찬의원",
        "hurl": "",
        "lat": 37.5710321661,
        "lon": 126.980466737,
        "highblood": 0,
        "lungCa": 0,
        "stomachCa": 0,
        "liverCa": 0,
        "bowelCa": 0,
        "breastCa": 0,
        "cesarean": 0,
        "antibiotics": 2,
        "injection": 2,
        "diabetes": 0,
        "asthma": 0,
        "dialysis": 0
    },
    {
        "name": "종로마취통증의학과의원",
        "hurl": "",
        "lat": 37.5713581142,
        "lon": 127.002485816,
        "highblood": 0,
        "lungCa": 0,
        "stomachCa": 0,
        "liverCa": 0,
        "bowelCa": 0,
        "breastCa": 0,
        "cesarean": 0,
        "antibiotics": 0,
        "injection": 1,
        "diabetes": 0,
        "asthma": 0,
        "dialysis": 0
    },
    {
        "name": "종로세브란스의원",
        "hurl": "",
        "lat": 37.5714984956,
        "lon": 127.006873361,
        "highblood": "양호",
        "lungCa": 0,
        "stomachCa": 0,
        "liverCa": 0,
        "bowelCa": 0,
        "breastCa": 0,
        "cesarean": 0,
        "antibiotics": 1,
        "injection": 5,
        "diabetes": "양호",
        "asthma": 0,
        "dialysis": 0
    }
][
    {
        "name": "종로신경외과의원",
        "hurl": "",
        "lat": 37.5713255713,
        "lon": 127.005610062,
        "highblood": 0,
        "lungCa": 0,
        "stomachCa": 0,
        "liverCa": 0,
        "bowelCa": 0,
        "breastCa": 0,
        "cesarean": 0,
        "antibiotics": 0,
        "injection": 1,
        "diabetes": 0,
        "asthma": 0,
        "dialysis": 0
    },
    {
        "name": "종로에스앤유피부과의원",
        "hurl": "http://www.brownspot.co.kr/",
        "lat": 37.5693643112,
        "lon": 126.986022754,
        "highblood": 0,
        "lungCa": 0,
        "stomachCa": 0,
        "liverCa": 0,
        "bowelCa": 0,
        "breastCa": 0,
        "cesarean": 0,
        "antibiotics": 0,
        "injection": 2,
        "diabetes": 0,
        "asthma": 0,
        "dialysis": 0
    },
    {
        "name": "종로연세의원",
        "hurl": "www.jongroyonsei.com",
        "lat": 37.5713435489,
        "lon": 127.006438669,
        "highblood": 0,
        "lungCa": 0,
        "stomachCa": 0,
        "liverCa": 0,
        "bowelCa": 0,
        "breastCa": 0,
        "cesarean": 0,
        "antibiotics": 3,
        "injection": 5,
        "diabetes": 0,
        "asthma": 0,
        "dialysis": 0
    },
    {
        "name": "종로정형외과의원",
        "hurl": "",
        "lat": 37.570844668,
        "lon": 126.979923442,
        "highblood": 0,
        "lungCa": 0,
        "stomachCa": 0,
        "liverCa": 0,
        "bowelCa": 0,
        "breastCa": 0,
        "cesarean": 0,
        "antibiotics": 0,
        "injection": 2,
        "diabetes": 0,
        "asthma": 0,
        "dialysis": 0
    }
][
    {
        "name": "최안과의원",
        "hurl": "",
        "lat": 37.5762334184,
        "lon": 126.985373939,
        "highblood": 0,
        "lungCa": 0,
        "stomachCa": 0,
        "liverCa": 0,
        "bowelCa": 0,
        "breastCa": 0,
        "cesarean": 0,
        "antibiotics": 0,
        "injection": 2,
        "diabetes": 0,
        "asthma": 0,
        "dialysis": 0
    },
    {
        "name": "코코이비인후과의원",
        "hurl": "",
        "lat": 37.5712031679,
        "lon": 127.00055693,
        "highblood": 0,
        "lungCa": 0,
        "stomachCa": 0,
        "liverCa": 0,
        "bowelCa": 0,
        "breastCa": 0,
        "cesarean": 0,
        "antibiotics": 1,
        "injection": 4,
        "diabetes": 0,
        "asthma": 0,
        "dialysis": 0
    },
    {
        "name": "큐피부과의원",
        "hurl": "http://www.pbu.co.kr/",
        "lat": 37.5699428234,
        "lon": 126.975432095,
        "highblood": 0,
        "lungCa": 0,
        "stomachCa": 0,
        "liverCa": 0,
        "bowelCa": 0,
        "breastCa": 0,
        "cesarean": 0,
        "antibiotics": 0,
        "injection": 3,
        "diabetes": 0,
        "asthma": 0,
        "dialysis": 0
    },
    {
        "name": "타워비뇨기과의원",
        "hurl": "",
        "lat": 37.5700675657,
        "lon": 126.990917195,
        "highblood": 0,
        "lungCa": 0,
        "stomachCa": 0,
        "liverCa": 0,
        "bowelCa": 0,
        "breastCa": 0,
        "cesarean": 0,
        "antibiotics": 0,
        "injection": 2,
        "diabetes": 0,
        "asthma": 0,
        "dialysis": 0
    }
][
    {
        "name": "하나여성의원",
        "hurl": "",
        "lat": 37.5709602436,
        "lon": 126.981440248,
        "highblood": 0,
        "lungCa": 0,
        "stomachCa": 0,
        "liverCa": 0,
        "bowelCa": 0,
        "breastCa": 0,
        "cesarean": 0,
        "antibiotics": 0,
        "injection": 5,
        "diabetes": 0,
        "asthma": 0,
        "dialysis": 0
    },
    {
        "name": "하루학문외과의원",
        "hurl": "http://www.1234567a.com",
        "lat": 37.6100152952,
        "lon": 126.975128984,
        "highblood": 0,
        "lungCa": 0,
        "stomachCa": 0,
        "liverCa": 0,
        "bowelCa": 0,
        "breastCa": 0,
        "cesarean": 0,
        "antibiotics": 0,
        "injection": 2,
        "diabetes": 0,
        "asthma": 0,
        "dialysis": 0
    },
    {
        "name": "한빛내과의원",
        "hurl": "",
        "lat": 37.5763316149,
        "lon": 126.970761424,
        "highblood": 0,
        "lungCa": 0,
        "stomachCa": 0,
        "liverCa": 0,
        "bowelCa": 0,
        "breastCa": 0,
        "cesarean": 0,
        "antibiotics": 3,
        "injection": 3,
        "diabetes": "양호",
        "asthma": 0,
        "dialysis": 0
    },
    {
        "name": "한사랑안과의원",
        "hurl": "",
        "lat": 37.57310514,
        "lon": 127.014824682,
        "highblood": 0,
        "lungCa": 0,
        "stomachCa": 0,
        "liverCa": 0,
        "bowelCa": 0,
        "breastCa": 0,
        "cesarean": 0,
        "antibiotics": 0,
        "injection": 3,
        "diabetes": 0,
        "asthma": 0,
        "dialysis": 0
    },
    {
        "name": "한솔마취통증의학과의원",
        "hurl": "",
        "lat": 37.5774189909,
        "lon": 127.015685907,
        "highblood": 0,
        "lungCa": 0,
        "stomachCa": 0,
        "liverCa": 0,
        "bowelCa": 0,
        "breastCa": 0,
        "cesarean": 0,
        "antibiotics": 0,
        "injection": 3,
        "diabetes": 0,
        "asthma": 0,
        "dialysis": 0
    },
    {
        "name": "한스의원 한의원",
        "hurl": "",
        "lat": 37.5704494,
        "lon": 126.9787326,
        "highblood": 0,
        "lungCa": 0,
        "stomachCa": 0,
        "liverCa": 0,
        "bowelCa": 0,
        "breastCa": 0,
        "cesarean": 0,
        "antibiotics": 1,
        "injection": 1,
        "diabetes": 0,
        "asthma": 0,
        "dialysis": 0
    },
    {
        "name": "한이비인후과의원",
        "hurl": "",
        "lat": 37.5740601162,
        "lon": 127.015436159,
        "highblood": 0,
        "lungCa": 0,
        "stomachCa": 0,
        "liverCa": 0,
        "bowelCa": 0,
        "breastCa": 0,
        "cesarean": 0,
        "antibiotics": 1,
        "injection": 2,
        "diabetes": 0,
        "asthma": 0,
        "dialysis": 0
    },
    {
        "name": "행촌의원",
        "hurl": "",
        "lat": 37.572983896,
        "lon": 126.9597914,
        "highblood": 0,
        "lungCa": 0,
        "stomachCa": 0,
        "liverCa": 0,
        "bowelCa": 0,
        "breastCa": 0,
        "cesarean": 0,
        "antibiotics": 3,
        "injection": 3,
        "diabetes": 0,
        "asthma": 0,
        "dialysis": 0
    }
][
    {
        "name": "혜화가정의원",
        "hurl": "",
        "lat": 37.585709138,
        "lon": 126.997060831,
        "highblood": "양호",
        "lungCa": 0,
        "stomachCa": 0,
        "liverCa": 0,
        "bowelCa": 0,
        "breastCa": 0,
        "cesarean": 0,
        "antibiotics": 1,
        "injection": 1,
        "diabetes": 0,
        "asthma": 0,
        "dialysis": 0
    },
    {
        "name": "혜화영상의학과의원",
        "hurl": "",
        "lat": 37.5828403994,
        "lon": 126.99826102,
        "highblood": 0,
        "lungCa": 0,
        "stomachCa": 0,
        "liverCa": 0,
        "bowelCa": 0,
        "breastCa": 0,
        "cesarean": 0,
        "antibiotics": 0,
        "injection": 0,
        "diabetes": 0,
        "asthma": 0,
        "dialysis": 0
    },
    {
        "name": "화인마취통증의학과의원",
        "hurl": "",
        "lat": 37.5704760178,
        "lon": 126.974512767,
        "highblood": 0,
        "lungCa": 0,
        "stomachCa": 0,
        "liverCa": 0,
        "bowelCa": 0,
        "breastCa": 0,
        "cesarean": 0,
        "antibiotics": 0,
        "injection": 1,
        "diabetes": 0,
        "asthma": 0,
        "dialysis": 0
    },
    {
        "name": "힘정형외과의원",
        "hurl": "",
        "lat": 37.5763676264,
        "lon": 127.003269361,
        "highblood": 0,
        "lungCa": 0,
        "stomachCa": 0,
        "liverCa": 0,
        "bowelCa": 0,
        "breastCa": 0,
        "cesarean": 0,
        "antibiotics": 0,
        "injection": 3,
        "diabetes": 0,
        "asthma": 0,
        "dialysis": 0
    }
][][][][][][][][][][][][][][][][][][][][][][][][][][][][][][]