[
    {
        "name": "성심의료재단강동성심병원",
        "hurl": "http://kangdong.hallym.or.kr/",
        "lat": 37.5361560925,
        "lon": 127.135334006,
        "highblood": "",
        "lungCa": 1,
        "stomachCa": 5,
        "liverCa": 4,
        "bowelCa": 1,
        "breastCa": 1,
        "cesarean": 1,
        "antibiotics": 1,
        "injection": 1,
        "diabetes": "",
        "asthma": "",
        "dialysis": 1
    },
    {
        "name": "한국보훈복지의료공단 중앙보훈병원",
        "hurl": "http://seoul.bohun.or.kr",
        "lat": 37.5282209009,
        "lon": 127.146718862,
        "highblood": "",
        "lungCa": 1,
        "stomachCa": 1,
        "liverCa": 1,
        "bowelCa": 1,
        "breastCa": 1,
        "cesarean": "",
        "antibiotics": 1,
        "injection": 1,
        "diabetes": "",
        "asthma": "",
        "dialysis": 1
    },
    {
        "name": "강동미즈여성병원",
        "hurl": "http://www.gdmiz.com/intro.asp",
        "lat": 37.5376183,
        "lon": 127.1281043,
        "highblood": "",
        "lungCa": "",
        "stomachCa": "",
        "liverCa": "",
        "bowelCa": "",
        "breastCa": "",
        "cesarean": 5,
        "antibiotics": 1,
        "injection": 2,
        "diabetes": "",
        "asthma": "",
        "dialysis": ""
    },
    {
        "name": "강동연세병원",
        "hurl": "http://강동연세병원.com",
        "lat": 37.5473144,
        "lon": 127.1268821,
        "highblood": "",
        "lungCa": "",
        "stomachCa": "",
        "liverCa": "",
        "bowelCa": "",
        "breastCa": "",
        "cesarean": "",
        "antibiotics": "",
        "injection": 5,
        "diabetes": "",
        "asthma": "",
        "dialysis": ""
    },
    {
        "name": "공안과병원",
        "hurl": "",
        "lat": 37.5339138928,
        "lon": 127.126025261,
        "highblood": "",
        "lungCa": "",
        "stomachCa": "",
        "liverCa": "",
        "bowelCa": "",
        "breastCa": "",
        "cesarean": "",
        "antibiotics": "",
        "injection": 1,
        "diabetes": "",
        "asthma": "",
        "dialysis": ""
    },
    {
        "name": "남기세병원",
        "hurl": "",
        "lat": 37.5346903515,
        "lon": 127.137512733,
        "highblood": "",
        "lungCa": "",
        "stomachCa": "",
        "liverCa": "",
        "bowelCa": "",
        "breastCa": "",
        "cesarean": "",
        "antibiotics": 3,
        "injection": 1,
        "diabetes": "",
        "asthma": "",
        "dialysis": ""
    },
    {
        "name": "달려라병원",
        "hurl": "http://www.hospitalrun.co.kr",
        "lat": 37.5340808526,
        "lon": 127.140928472,
        "highblood": "",
        "lungCa": "",
        "stomachCa": "",
        "liverCa": "",
        "bowelCa": "",
        "breastCa": "",
        "cesarean": "",
        "antibiotics": 1,
        "injection": 4,
        "diabetes": "",
        "asthma": "",
        "dialysis": ""
    },
    {
        "name": "러스크강동병원",
        "hurl": "http://www.ruskgd.co.kr/",
        "lat": 37.5480825352,
        "lon": 127.143788408,
        "highblood": "",
        "lungCa": "",
        "stomachCa": "",
        "liverCa": "",
        "bowelCa": "",
        "breastCa": "",
        "cesarean": "",
        "antibiotics": "",
        "injection": 1,
        "diabetes": "",
        "asthma": "",
        "dialysis": ""
    }
][
    {
        "name": "리더스병원",
        "hurl": "",
        "lat": 37.5369466324,
        "lon": 127.127727544,
        "highblood": "",
        "lungCa": "",
        "stomachCa": "",
        "liverCa": "",
        "bowelCa": "",
        "breastCa": "",
        "cesarean": "",
        "antibiotics": 1,
        "injection": 4,
        "diabetes": "",
        "asthma": "",
        "dialysis": ""
    },
    {
        "name": "사랑플러스병원",
        "hurl": "http://www.sarang-plus.com/main/main.php",
        "lat": 37.5466844097,
        "lon": 127.143604667,
        "highblood": "",
        "lungCa": "",
        "stomachCa": "",
        "liverCa": "",
        "bowelCa": "",
        "breastCa": "",
        "cesarean": "",
        "antibiotics": 1,
        "injection": 2,
        "diabetes": "",
        "asthma": "",
        "dialysis": ""
    },
    {
        "name": "서울양병원",
        "hurl": "http://www.yangh.co.kr",
        "lat": 37.5340673952,
        "lon": 127.140122883,
        "highblood": "",
        "lungCa": "",
        "stomachCa": 5,
        "liverCa": 5,
        "bowelCa": 1,
        "breastCa": "",
        "cesarean": "",
        "antibiotics": 2,
        "injection": 2,
        "diabetes": "",
        "asthma": "",
        "dialysis": ""
    },
    {
        "name": "올바른서울병원",
        "hurl": "",
        "lat": 37.5420993091,
        "lon": 127.141296601,
        "highblood": "",
        "lungCa": "",
        "stomachCa": "",
        "liverCa": "",
        "bowelCa": "",
        "breastCa": "",
        "cesarean": "",
        "antibiotics": 2,
        "injection": 2,
        "diabetes": "",
        "asthma": "",
        "dialysis": ""
    },
    {
        "name": "조은마디병원",
        "hurl": "http://www.joeunmadi.co.kr/",
        "lat": 37.5343637122,
        "lon": 127.13321276,
        "highblood": "",
        "lungCa": "",
        "stomachCa": "",
        "liverCa": "",
        "bowelCa": "",
        "breastCa": "",
        "cesarean": "",
        "antibiotics": 3,
        "injection": 3,
        "diabetes": "",
        "asthma": "",
        "dialysis": ""
    },
    {
        "name": "채원자연통합병원",
        "hurl": "",
        "lat": 37.5276551,
        "lon": 127.1270749,
        "highblood": "",
        "lungCa": "",
        "stomachCa": "",
        "liverCa": "",
        "bowelCa": "",
        "breastCa": "",
        "cesarean": "",
        "antibiotics": 1,
        "injection": 3,
        "diabetes": "",
        "asthma": "",
        "dialysis": ""
    },
    {
        "name": "청병원",
        "hurl": "http://www.chunghospital.net",
        "lat": 37.5302466462,
        "lon": 127.12102304,
        "highblood": "",
        "lungCa": "",
        "stomachCa": "",
        "liverCa": "",
        "bowelCa": "",
        "breastCa": "",
        "cesarean": "",
        "antibiotics": 1,
        "injection": 3,
        "diabetes": "",
        "asthma": "",
        "dialysis": ""
    },
    {
        "name": "허리나은병원",
        "hurl": "",
        "lat": 37.5380965152,
        "lon": 127.124154058,
        "highblood": "",
        "lungCa": "",
        "stomachCa": "",
        "liverCa": "",
        "bowelCa": "",
        "breastCa": "",
        "cesarean": "",
        "antibiotics": 4,
        "injection": 3,
        "diabetes": "",
        "asthma": "",
        "dialysis": ""
    },
    {
        "name": "강동성모요양병원",
        "hurl": "",
        "lat": 37.5434704569,
        "lon": 127.12718195,
        "highblood": "",
        "lungCa": "",
        "stomachCa": "",
        "liverCa": "",
        "bowelCa": "",
        "breastCa": "",
        "cesarean": "",
        "antibiotics": "",
        "injection": "",
        "diabetes": "",
        "asthma": "",
        "dialysis": ""
    },
    {
        "name": "동부센트럴요양병원",
        "hurl": "",
        "lat": 37.551134789,
        "lon": 127.128439806,
        "highblood": "",
        "lungCa": "",
        "stomachCa": "",
        "liverCa": "",
        "bowelCa": "",
        "breastCa": "",
        "cesarean": "",
        "antibiotics": "",
        "injection": "",
        "diabetes": "",
        "asthma": "",
        "dialysis": ""
    }
][
    {
        "name": "서울현대요양병원",
        "hurl": "",
        "lat": 37.5422795493,
        "lon": 127.125297054,
        "highblood": "",
        "lungCa": "",
        "stomachCa": "",
        "liverCa": "",
        "bowelCa": "",
        "breastCa": "",
        "cesarean": "",
        "antibiotics": "",
        "injection": "",
        "diabetes": "",
        "asthma": "",
        "dialysis": ""
    },
    {
        "name": "예닮요양병원",
        "hurl": "",
        "lat": 37.536418418,
        "lon": 127.139095404,
        "highblood": "",
        "lungCa": "",
        "stomachCa": "",
        "liverCa": "",
        "bowelCa": "",
        "breastCa": "",
        "cesarean": "",
        "antibiotics": "",
        "injection": "",
        "diabetes": "",
        "asthma": "",
        "dialysis": ""
    },
    {
        "name": "한국보훈복지의료공단 보훈요양병원",
        "hurl": "",
        "lat": "37.5306340",
        "lon": 127.1481606,
        "highblood": "",
        "lungCa": "",
        "stomachCa": "",
        "liverCa": "",
        "bowelCa": "",
        "breastCa": "",
        "cesarean": "",
        "antibiotics": "",
        "injection": "",
        "diabetes": "",
        "asthma": "",
        "dialysis": ""
    },
    {
        "name": "(의)한국필의료재단 한국의원",
        "hurl": "",
        "lat": 37.5278209919,
        "lon": 127.12801065,
        "highblood": "",
        "lungCa": "",
        "stomachCa": "",
        "liverCa": "",
        "bowelCa": "",
        "breastCa": "",
        "cesarean": "",
        "antibiotics": 1,
        "injection": 5,
        "diabetes": "",
        "asthma": "",
        "dialysis": ""
    },
    {
        "name": "365힐링의원",
        "hurl": "",
        "lat": 37.5361627009,
        "lon": 127.132686446,
        "highblood": "",
        "lungCa": "",
        "stomachCa": "",
        "liverCa": "",
        "bowelCa": "",
        "breastCa": "",
        "cesarean": "",
        "antibiotics": 2,
        "injection": 3,
        "diabetes": "",
        "asthma": "",
        "dialysis": ""
    },
    {
        "name": "가람내과의원",
        "hurl": "http://www.가람내과.한국",
        "lat": 37.5576884154,
        "lon": 127.148601027,
        "highblood": "양호",
        "lungCa": "",
        "stomachCa": "",
        "liverCa": "",
        "bowelCa": "",
        "breastCa": "",
        "cesarean": "",
        "antibiotics": 1,
        "injection": 2,
        "diabetes": "",
        "asthma": "",
        "dialysis": ""
    },
    {
        "name": "강남정신과의원",
        "hurl": "",
        "lat": 37.5393407888,
        "lon": 127.123300715,
        "highblood": "",
        "lungCa": "",
        "stomachCa": "",
        "liverCa": "",
        "bowelCa": "",
        "breastCa": "",
        "cesarean": "",
        "antibiotics": "",
        "injection": "",
        "diabetes": "",
        "asthma": "",
        "dialysis": ""
    },
    {
        "name": "강동고려가정의원",
        "hurl": "",
        "lat": 37.546414697,
        "lon": 127.133904107,
        "highblood": "",
        "lungCa": "",
        "stomachCa": "",
        "liverCa": "",
        "bowelCa": "",
        "breastCa": "",
        "cesarean": "",
        "antibiotics": 4,
        "injection": 4,
        "diabetes": "",
        "asthma": "",
        "dialysis": ""
    },
    {
        "name": "강동고려의원",
        "hurl": "",
        "lat": 37.5249339377,
        "lon": 127.134711895,
        "highblood": "",
        "lungCa": "",
        "stomachCa": "",
        "liverCa": "",
        "bowelCa": "",
        "breastCa": "",
        "cesarean": "",
        "antibiotics": "",
        "injection": 3,
        "diabetes": "",
        "asthma": "",
        "dialysis": ""
    }
][
    {
        "name": "강동굿모닝이비인후과의원",
        "hurl": "",
        "lat": 37.5552514067,
        "lon": 127.140348142,
        "highblood": "",
        "lungCa": "",
        "stomachCa": "",
        "liverCa": "",
        "bowelCa": "",
        "breastCa": "",
        "cesarean": "",
        "antibiotics": 4,
        "injection": 2,
        "diabetes": "",
        "asthma": "",
        "dialysis": ""
    },
    {
        "name": "강동김내과의원",
        "hurl": "",
        "lat": 37.5300445449,
        "lon": 127.131399446,
        "highblood": "양호",
        "lungCa": "",
        "stomachCa": "",
        "liverCa": "",
        "bowelCa": "",
        "breastCa": "",
        "cesarean": "",
        "antibiotics": 1,
        "injection": 3,
        "diabetes": "",
        "asthma": "",
        "dialysis": ""
    },
    {
        "name": "강동김안과의원",
        "hurl": "http://www.kdkimeye.kr/",
        "lat": 37.5572249246,
        "lon": 127.168980829,
        "highblood": "",
        "lungCa": "",
        "stomachCa": "",
        "liverCa": "",
        "bowelCa": "",
        "breastCa": "",
        "cesarean": "",
        "antibiotics": "",
        "injection": 1,
        "diabetes": "",
        "asthma": "",
        "dialysis": ""
    },
    {
        "name": "강동내과의원",
        "hurl": "",
        "lat": 37.5370451021,
        "lon": 127.123242625,
        "highblood": "",
        "lungCa": "",
        "stomachCa": "",
        "liverCa": "",
        "bowelCa": "",
        "breastCa": "",
        "cesarean": "",
        "antibiotics": 3,
        "injection": 3,
        "diabetes": "",
        "asthma": "",
        "dialysis": ""
    },
    {
        "name": "강동미래의원",
        "hurl": "",
        "lat": 37.5473935682,
        "lon": 127.135146103,
        "highblood": "양호",
        "lungCa": "",
        "stomachCa": "",
        "liverCa": "",
        "bowelCa": "",
        "breastCa": "",
        "cesarean": "",
        "antibiotics": 1,
        "injection": 4,
        "diabetes": "",
        "asthma": "",
        "dialysis": ""
    },
    {
        "name": "강동삼성안과의원",
        "hurl": "",
        "lat": 37.5546797886,
        "lon": 127.15368327,
        "highblood": "",
        "lungCa": "",
        "stomachCa": "",
        "liverCa": "",
        "bowelCa": "",
        "breastCa": "",
        "cesarean": "",
        "antibiotics": "",
        "injection": 1,
        "diabetes": "",
        "asthma": "",
        "dialysis": ""
    },
    {
        "name": "강동서울내과의원",
        "hurl": "",
        "lat": 37.5381085546,
        "lon": 127.12639439,
        "highblood": "",
        "lungCa": "",
        "stomachCa": "",
        "liverCa": "",
        "bowelCa": "",
        "breastCa": "",
        "cesarean": "",
        "antibiotics": 1,
        "injection": 4,
        "diabetes": "",
        "asthma": "",
        "dialysis": ""
    },
    {
        "name": "강동서울대항장문외과의원",
        "hurl": "http://www.colon.co.kr",
        "lat": 37.5351749901,
        "lon": 127.136042769,
        "highblood": "",
        "lungCa": "",
        "stomachCa": "",
        "liverCa": "",
        "bowelCa": "",
        "breastCa": "",
        "cesarean": "",
        "antibiotics": "",
        "injection": 4,
        "diabetes": "",
        "asthma": "",
        "dialysis": ""
    },
    {
        "name": "강동서울삼성내과의원",
        "hurl": "",
        "lat": 37.5318895726,
        "lon": 127.124962886,
        "highblood": "",
        "lungCa": "",
        "stomachCa": "",
        "liverCa": "",
        "bowelCa": "",
        "breastCa": "",
        "cesarean": "",
        "antibiotics": 5,
        "injection": 1,
        "diabetes": "",
        "asthma": "",
        "dialysis": ""
    },
    {
        "name": "강동서울의원",
        "hurl": "http://www.breast1.co.kr",
        "lat": 37.5351749901,
        "lon": 127.136042769,
        "highblood": "",
        "lungCa": "",
        "stomachCa": "",
        "liverCa": "",
        "bowelCa": "",
        "breastCa": "",
        "cesarean": "",
        "antibiotics": 1,
        "injection": 2,
        "diabetes": "양호",
        "asthma": "",
        "dialysis": ""
    }
][
    {
        "name": "강동서울정형외과의원",
        "hurl": "",
        "lat": 37.5344510612,
        "lon": 127.135629619,
        "highblood": "",
        "lungCa": "",
        "stomachCa": "",
        "liverCa": "",
        "bowelCa": "",
        "breastCa": "",
        "cesarean": "",
        "antibiotics": "",
        "injection": 3,
        "diabetes": "",
        "asthma": "",
        "dialysis": ""
    },
    {
        "name": "강동신경외과의원",
        "hurl": "",
        "lat": 37.5470051203,
        "lon": 127.143641493,
        "highblood": "양호",
        "lungCa": "",
        "stomachCa": "",
        "liverCa": "",
        "bowelCa": "",
        "breastCa": "",
        "cesarean": "",
        "antibiotics": 1,
        "injection": 1,
        "diabetes": "",
        "asthma": "",
        "dialysis": ""
    },
    {
        "name": "강동신경정신과의원",
        "hurl": "http://www.gdclinic.co.kr",
        "lat": 37.5361589519,
        "lon": 127.139076819,
        "highblood": "",
        "lungCa": "",
        "stomachCa": "",
        "liverCa": "",
        "bowelCa": "",
        "breastCa": "",
        "cesarean": "",
        "antibiotics": "",
        "injection": 1,
        "diabetes": "",
        "asthma": "",
        "dialysis": ""
    },
    {
        "name": "강동연세내과의원",
        "hurl": "",
        "lat": 37.5508648295,
        "lon": 127.128127004,
        "highblood": "양호",
        "lungCa": "",
        "stomachCa": "",
        "liverCa": "",
        "bowelCa": "",
        "breastCa": "",
        "cesarean": "",
        "antibiotics": 4,
        "injection": 3,
        "diabetes": "",
        "asthma": "",
        "dialysis": ""
    },
    {
        "name": "강동연세이비인후과의원",
        "hurl": "",
        "lat": 37.5380826174,
        "lon": 127.139813584,
        "highblood": "",
        "lungCa": "",
        "stomachCa": "",
        "liverCa": "",
        "bowelCa": "",
        "breastCa": "",
        "cesarean": "",
        "antibiotics": 4,
        "injection": 1,
        "diabetes": "",
        "asthma": "",
        "dialysis": ""
    },
    {
        "name": "강동연세정신과의원",
        "hurl": "",
        "lat": 37.5319249069,
        "lon": 127.141557986,
        "highblood": "",
        "lungCa": "",
        "stomachCa": "",
        "liverCa": "",
        "bowelCa": "",
        "breastCa": "",
        "cesarean": "",
        "antibiotics": "",
        "injection": "",
        "diabetes": "",
        "asthma": "",
        "dialysis": ""
    },
    {
        "name": "강동연세정형외과의원",
        "hurl": "",
        "lat": 37.5275537801,
        "lon": 127.128485344,
        "highblood": "",
        "lungCa": "",
        "stomachCa": "",
        "liverCa": "",
        "bowelCa": "",
        "breastCa": "",
        "cesarean": "",
        "antibiotics": "",
        "injection": 2,
        "diabetes": "",
        "asthma": "",
        "dialysis": ""
    },
    {
        "name": "강동천호내과의원",
        "hurl": "http://www.wejang75.com/",
        "lat": 37.5405571775,
        "lon": 127.12497735,
        "highblood": "양호",
        "lungCa": "",
        "stomachCa": "",
        "liverCa": "",
        "bowelCa": "",
        "breastCa": "",
        "cesarean": "",
        "antibiotics": 3,
        "injection": 2,
        "diabetes": "양호",
        "asthma": "",
        "dialysis": ""
    },
    {
        "name": "강동천호정형외과의원",
        "hurl": "",
        "lat": 37.5381085546,
        "lon": 127.12639439,
        "highblood": "",
        "lungCa": "",
        "stomachCa": "",
        "liverCa": "",
        "bowelCa": "",
        "breastCa": "",
        "cesarean": "",
        "antibiotics": "",
        "injection": 1,
        "diabetes": "",
        "asthma": "",
        "dialysis": ""
    },
    {
        "name": "강동통합의원",
        "hurl": "",
        "lat": 37.551408322,
        "lon": 127.128779777,
        "highblood": "",
        "lungCa": "",
        "stomachCa": "",
        "liverCa": "",
        "bowelCa": "",
        "breastCa": "",
        "cesarean": "",
        "antibiotics": 1,
        "injection": 3,
        "diabetes": "",
        "asthma": "",
        "dialysis": ""
    }
][
    {
        "name": "강동하나이비인후과의원",
        "hurl": "",
        "lat": 37.546562802,
        "lon": 127.142839473,
        "highblood": "",
        "lungCa": "",
        "stomachCa": "",
        "liverCa": "",
        "bowelCa": "",
        "breastCa": "",
        "cesarean": "",
        "antibiotics": 4,
        "injection": 3,
        "diabetes": "",
        "asthma": "",
        "dialysis": ""
    },
    {
        "name": "강동한내과의원",
        "hurl": "",
        "lat": 37.5368768027,
        "lon": 127.135412248,
        "highblood": "",
        "lungCa": "",
        "stomachCa": "",
        "liverCa": "",
        "bowelCa": "",
        "breastCa": "",
        "cesarean": "",
        "antibiotics": "",
        "injection": 3,
        "diabetes": "",
        "asthma": "",
        "dialysis": ""
    },
    {
        "name": "강민모내과의원",
        "hurl": "",
        "lat": 37.5456116892,
        "lon": 127.133300668,
        "highblood": "양호",
        "lungCa": "",
        "stomachCa": "",
        "liverCa": "",
        "bowelCa": "",
        "breastCa": "",
        "cesarean": "",
        "antibiotics": 3,
        "injection": 2,
        "diabetes": "양호",
        "asthma": "",
        "dialysis": ""
    },
    {
        "name": "강원룡신경과정신과의원",
        "hurl": "",
        "lat": 37.5381085546,
        "lon": 127.12639439,
        "highblood": "",
        "lungCa": "",
        "stomachCa": "",
        "liverCa": "",
        "bowelCa": "",
        "breastCa": "",
        "cesarean": "",
        "antibiotics": "",
        "injection": 1,
        "diabetes": "",
        "asthma": "",
        "dialysis": ""
    },
    {
        "name": "강일코모키이비인후과의원",
        "hurl": "http://www.gangilko.com",
        "lat": 37.5656489,
        "lon": 127.1738035,
        "highblood": "",
        "lungCa": "",
        "stomachCa": "",
        "liverCa": "",
        "bowelCa": "",
        "breastCa": "",
        "cesarean": "",
        "antibiotics": 1,
        "injection": 2,
        "diabetes": "",
        "asthma": "",
        "dialysis": ""
    },
    {
        "name": "경희큰나무의원",
        "hurl": "",
        "lat": 37.5495438025,
        "lon": 127.129926319,
        "highblood": "",
        "lungCa": "",
        "stomachCa": "",
        "liverCa": "",
        "bowelCa": "",
        "breastCa": "",
        "cesarean": "",
        "antibiotics": "",
        "injection": 1,
        "diabetes": "",
        "asthma": "",
        "dialysis": ""
    },
    {
        "name": "고내과의원",
        "hurl": "",
        "lat": 37.5411460829,
        "lon": 127.130300987,
        "highblood": "양호",
        "lungCa": "",
        "stomachCa": "",
        "liverCa": "",
        "bowelCa": "",
        "breastCa": "",
        "cesarean": "",
        "antibiotics": 4,
        "injection": 4,
        "diabetes": "양호",
        "asthma": "양호",
        "dialysis": ""
    },
    {
        "name": "고안과의원",
        "hurl": "",
        "lat": 37.5506479692,
        "lon": 127.14428674,
        "highblood": "",
        "lungCa": "",
        "stomachCa": "",
        "liverCa": "",
        "bowelCa": "",
        "breastCa": "",
        "cesarean": "",
        "antibiotics": "",
        "injection": 1,
        "diabetes": "",
        "asthma": "",
        "dialysis": ""
    },
    {
        "name": "고운가정의학과의원",
        "hurl": "",
        "lat": 37.5591846946,
        "lon": 127.153742321,
        "highblood": "양호",
        "lungCa": "",
        "stomachCa": "",
        "liverCa": "",
        "bowelCa": "",
        "breastCa": "",
        "cesarean": "",
        "antibiotics": 2,
        "injection": 2,
        "diabetes": "",
        "asthma": "",
        "dialysis": ""
    }
][
    {
        "name": "고운나라의원",
        "hurl": "",
        "lat": 37.5373443676,
        "lon": 127.12652435,
        "highblood": "",
        "lungCa": "",
        "stomachCa": "",
        "liverCa": "",
        "bowelCa": "",
        "breastCa": "",
        "cesarean": "",
        "antibiotics": "",
        "injection": 1,
        "diabetes": "",
        "asthma": "",
        "dialysis": ""
    },
    {
        "name": "고운맘의원",
        "hurl": "",
        "lat": 37.5366055081,
        "lon": 127.133117181,
        "highblood": "",
        "lungCa": "",
        "stomachCa": "",
        "liverCa": "",
        "bowelCa": "",
        "breastCa": "",
        "cesarean": "",
        "antibiotics": 3,
        "injection": 2,
        "diabetes": "",
        "asthma": "",
        "dialysis": ""
    },
    {
        "name": "구안과의원",
        "hurl": "",
        "lat": 37.5382497868,
        "lon": 127.125761004,
        "highblood": "",
        "lungCa": "",
        "stomachCa": "",
        "liverCa": "",
        "bowelCa": "",
        "breastCa": "",
        "cesarean": "",
        "antibiotics": "",
        "injection": 1,
        "diabetes": "",
        "asthma": "",
        "dialysis": ""
    },
    {
        "name": "굿모닝안과의원",
        "hurl": "http://www.lenseye.co.kr",
        "lat": 37.5380500481,
        "lon": 127.123787385,
        "highblood": "",
        "lungCa": "",
        "stomachCa": "",
        "liverCa": "",
        "bowelCa": "",
        "breastCa": "",
        "cesarean": "",
        "antibiotics": "",
        "injection": 2,
        "diabetes": "",
        "asthma": "",
        "dialysis": ""
    },
    {
        "name": "굿모닝의원",
        "hurl": "",
        "lat": 37.5399496932,
        "lon": 127.123464654,
        "highblood": "",
        "lungCa": "",
        "stomachCa": "",
        "liverCa": "",
        "bowelCa": "",
        "breastCa": "",
        "cesarean": "",
        "antibiotics": "",
        "injection": 4,
        "diabetes": "",
        "asthma": "",
        "dialysis": ""
    },
    {
        "name": "기쁨마취통증의학과의원",
        "hurl": "",
        "lat": 37.5350702422,
        "lon": 127.139332762,
        "highblood": "",
        "lungCa": "",
        "stomachCa": "",
        "liverCa": "",
        "bowelCa": "",
        "breastCa": "",
        "cesarean": "",
        "antibiotics": "",
        "injection": 4,
        "diabetes": "",
        "asthma": "",
        "dialysis": ""
    },
    {
        "name": "길동미래로내과의원",
        "hurl": "",
        "lat": 37.5408312954,
        "lon": 127.146720938,
        "highblood": "양호",
        "lungCa": "",
        "stomachCa": "",
        "liverCa": "",
        "bowelCa": "",
        "breastCa": "",
        "cesarean": "",
        "antibiotics": 1,
        "injection": 2,
        "diabetes": "양호",
        "asthma": "",
        "dialysis": ""
    },
    {
        "name": "길마취통증의학과의원",
        "hurl": "",
        "lat": 37.5385027585,
        "lon": 127.125109698,
        "highblood": "",
        "lungCa": "",
        "stomachCa": "",
        "liverCa": "",
        "bowelCa": "",
        "breastCa": "",
        "cesarean": "",
        "antibiotics": "",
        "injection": 5,
        "diabetes": "",
        "asthma": "",
        "dialysis": ""
    }
][
    {
        "name": "길맨비뇨기과의원",
        "hurl": "http://www.gilman.co.kr/sub/sub_list_04.php",
        "lat": 37.5353814932,
        "lon": 127.135106321,
        "highblood": "",
        "lungCa": "",
        "stomachCa": "",
        "liverCa": "",
        "bowelCa": "",
        "breastCa": "",
        "cesarean": "",
        "antibiotics": "",
        "injection": 1,
        "diabetes": "",
        "asthma": "",
        "dialysis": ""
    },
    {
        "name": "김경수정형외과의원",
        "hurl": "",
        "lat": 37.5398058942,
        "lon": 127.126528509,
        "highblood": "",
        "lungCa": "",
        "stomachCa": "",
        "liverCa": "",
        "bowelCa": "",
        "breastCa": "",
        "cesarean": "",
        "antibiotics": "",
        "injection": 4,
        "diabetes": "",
        "asthma": "",
        "dialysis": ""
    },
    {
        "name": "김경원내과의원",
        "hurl": "",
        "lat": 37.5533513916,
        "lon": 127.143934334,
        "highblood": "",
        "lungCa": "",
        "stomachCa": "",
        "liverCa": "",
        "bowelCa": "",
        "breastCa": "",
        "cesarean": "",
        "antibiotics": 5,
        "injection": 5,
        "diabetes": "",
        "asthma": "",
        "dialysis": ""
    },
    {
        "name": "김병학내과의원",
        "hurl": "",
        "lat": 37.5456649218,
        "lon": 127.143240604,
        "highblood": "양호",
        "lungCa": "",
        "stomachCa": "",
        "liverCa": "",
        "bowelCa": "",
        "breastCa": "",
        "cesarean": "",
        "antibiotics": 4,
        "injection": 3,
        "diabetes": "",
        "asthma": "",
        "dialysis": ""
    },
    {
        "name": "김상곤내과의원",
        "hurl": "",
        "lat": 37.5577476044,
        "lon": 127.168909576,
        "highblood": "양호",
        "lungCa": "",
        "stomachCa": "",
        "liverCa": "",
        "bowelCa": "",
        "breastCa": "",
        "cesarean": "",
        "antibiotics": 5,
        "injection": 3,
        "diabetes": "",
        "asthma": "",
        "dialysis": ""
    },
    {
        "name": "김술경이비인후과의원",
        "hurl": "",
        "lat": 37.5345556635,
        "lon": 127.144667567,
        "highblood": "",
        "lungCa": "",
        "stomachCa": "",
        "liverCa": "",
        "bowelCa": "",
        "breastCa": "",
        "cesarean": "",
        "antibiotics": 3,
        "injection": 1,
        "diabetes": "",
        "asthma": "",
        "dialysis": ""
    },
    {
        "name": "김승환이비인후과의원",
        "hurl": "",
        "lat": 37.5517117126,
        "lon": 127.14382254,
        "highblood": "",
        "lungCa": "",
        "stomachCa": "",
        "liverCa": "",
        "bowelCa": "",
        "breastCa": "",
        "cesarean": "",
        "antibiotics": 4,
        "injection": 1,
        "diabetes": "",
        "asthma": "",
        "dialysis": ""
    },
    {
        "name": "김앤김피부과의원",
        "hurl": "http://www.skin365.co.kr/",
        "lat": 37.5381085546,
        "lon": 127.12639439,
        "highblood": "",
        "lungCa": "",
        "stomachCa": "",
        "liverCa": "",
        "bowelCa": "",
        "breastCa": "",
        "cesarean": "",
        "antibiotics": "",
        "injection": 5,
        "diabetes": "",
        "asthma": "",
        "dialysis": ""
    },
    {
        "name": "김영주이비인후과의원",
        "hurl": "",
        "lat": 37.5532980221,
        "lon": 127.154784972,
        "highblood": "",
        "lungCa": "",
        "stomachCa": "",
        "liverCa": "",
        "bowelCa": "",
        "breastCa": "",
        "cesarean": "",
        "antibiotics": 4,
        "injection": 3,
        "diabetes": "",
        "asthma": "",
        "dialysis": ""
    },
    {
        "name": "김오경내과의원",
        "hurl": "",
        "lat": 37.5549627924,
        "lon": 127.137536395,
        "highblood": "양호",
        "lungCa": "",
        "stomachCa": "",
        "liverCa": "",
        "bowelCa": "",
        "breastCa": "",
        "cesarean": "",
        "antibiotics": 1,
        "injection": 4,
        "diabetes": "양호",
        "asthma": "양호",
        "dialysis": ""
    }
][
    {
        "name": "김윤아산부인과의원",
        "hurl": "",
        "lat": 37.5514126262,
        "lon": 127.143785752,
        "highblood": "",
        "lungCa": "",
        "stomachCa": "",
        "liverCa": "",
        "bowelCa": "",
        "breastCa": "",
        "cesarean": "",
        "antibiotics": "",
        "injection": 2,
        "diabetes": "",
        "asthma": "",
        "dialysis": ""
    },
    {
        "name": "김이비인후과의원",
        "hurl": "",
        "lat": 37.5507466085,
        "lon": 127.127470438,
        "highblood": "",
        "lungCa": "",
        "stomachCa": "",
        "liverCa": "",
        "bowelCa": "",
        "breastCa": "",
        "cesarean": "",
        "antibiotics": "",
        "injection": 1,
        "diabetes": "",
        "asthma": "",
        "dialysis": ""
    },
    {
        "name": "김이중피부과의원",
        "hurl": "",
        "lat": 37.5273944381,
        "lon": 127.135616842,
        "highblood": "",
        "lungCa": "",
        "stomachCa": "",
        "liverCa": "",
        "bowelCa": "",
        "breastCa": "",
        "cesarean": "",
        "antibiotics": "",
        "injection": 4,
        "diabetes": "",
        "asthma": "",
        "dialysis": ""
    },
    {
        "name": "김재호이비인후과의원",
        "hurl": "",
        "lat": 37.5393407888,
        "lon": 127.123300715,
        "highblood": "",
        "lungCa": "",
        "stomachCa": "",
        "liverCa": "",
        "bowelCa": "",
        "breastCa": "",
        "cesarean": "",
        "antibiotics": 3,
        "injection": 2,
        "diabetes": "",
        "asthma": "",
        "dialysis": ""
    },
    {
        "name": "김정래이비인후과의원",
        "hurl": "",
        "lat": 37.5273944381,
        "lon": 127.135616842,
        "highblood": "",
        "lungCa": "",
        "stomachCa": "",
        "liverCa": "",
        "bowelCa": "",
        "breastCa": "",
        "cesarean": "",
        "antibiotics": 1,
        "injection": 4,
        "diabetes": "",
        "asthma": "",
        "dialysis": ""
    },
    {
        "name": "김종영재활의학과의원",
        "hurl": "",
        "lat": 37.5541300301,
        "lon": 127.155176002,
        "highblood": "",
        "lungCa": "",
        "stomachCa": "",
        "liverCa": "",
        "bowelCa": "",
        "breastCa": "",
        "cesarean": "",
        "antibiotics": "",
        "injection": 3,
        "diabetes": "",
        "asthma": "",
        "dialysis": ""
    },
    {
        "name": "김종하정신과의원",
        "hurl": "",
        "lat": 37.5350447137,
        "lon": 127.136504154,
        "highblood": "",
        "lungCa": "",
        "stomachCa": "",
        "liverCa": "",
        "bowelCa": "",
        "breastCa": "",
        "cesarean": "",
        "antibiotics": "",
        "injection": "",
        "diabetes": "",
        "asthma": "",
        "dialysis": ""
    },
    {
        "name": "김진경이비인후과의원",
        "hurl": "",
        "lat": "37.5515510",
        "lon": "127.1277400",
        "highblood": "",
        "lungCa": "",
        "stomachCa": "",
        "liverCa": "",
        "bowelCa": "",
        "breastCa": "",
        "cesarean": "",
        "antibiotics": "",
        "injection": "",
        "diabetes": "",
        "asthma": "",
        "dialysis": ""
    },
    {
        "name": "김창환산부인과의원",
        "hurl": "",
        "lat": 37.548052563,
        "lon": 127.135613521,
        "highblood": "",
        "lungCa": "",
        "stomachCa": "",
        "liverCa": "",
        "bowelCa": "",
        "breastCa": "",
        "cesarean": "",
        "antibiotics": "",
        "injection": 5,
        "diabetes": "",
        "asthma": "",
        "dialysis": ""
    },
    {
        "name": "김형철신경과의원",
        "hurl": "http://neuro4u.co.kr/index.asp",
        "lat": 37.5377692256,
        "lon": 127.139681749,
        "highblood": "양호",
        "lungCa": "",
        "stomachCa": "",
        "liverCa": "",
        "bowelCa": "",
        "breastCa": "",
        "cesarean": "",
        "antibiotics": 1,
        "injection": 2,
        "diabetes": "양호",
        "asthma": "",
        "dialysis": ""
    }
][
    {
        "name": "나우정신과의원",
        "hurl": "http://www.nowclinic.co.kr/",
        "lat": 37.5378953122,
        "lon": 127.126959764,
        "highblood": "",
        "lungCa": "",
        "stomachCa": "",
        "liverCa": "",
        "bowelCa": "",
        "breastCa": "",
        "cesarean": "",
        "antibiotics": "",
        "injection": "",
        "diabetes": "",
        "asthma": "",
        "dialysis": ""
    },
    {
        "name": "노경민정형외과의원",
        "hurl": "",
        "lat": 37.5508728,
        "lon": 127.1281161,
        "highblood": "",
        "lungCa": "",
        "stomachCa": "",
        "liverCa": "",
        "bowelCa": "",
        "breastCa": "",
        "cesarean": "",
        "antibiotics": "",
        "injection": 2,
        "diabetes": "",
        "asthma": "",
        "dialysis": ""
    },
    {
        "name": "노민관가정의학과의원",
        "hurl": "",
        "lat": 37.5349292603,
        "lon": 127.145659415,
        "highblood": "양호",
        "lungCa": "",
        "stomachCa": "",
        "liverCa": "",
        "bowelCa": "",
        "breastCa": "",
        "cesarean": "",
        "antibiotics": "",
        "injection": 3,
        "diabetes": "",
        "asthma": "양호",
        "dialysis": ""
    },
    {
        "name": "노벨의원",
        "hurl": "",
        "lat": 37.5401832373,
        "lon": 127.127529395,
        "highblood": "",
        "lungCa": "",
        "stomachCa": "",
        "liverCa": "",
        "bowelCa": "",
        "breastCa": "",
        "cesarean": "",
        "antibiotics": "",
        "injection": 4,
        "diabetes": "",
        "asthma": "",
        "dialysis": ""
    },
    {
        "name": "노블클래식의원",
        "hurl": "",
        "lat": 37.5366055081,
        "lon": 127.133117181,
        "highblood": "",
        "lungCa": "",
        "stomachCa": "",
        "liverCa": "",
        "bowelCa": "",
        "breastCa": "",
        "cesarean": "",
        "antibiotics": "",
        "injection": 3,
        "diabetes": "",
        "asthma": "",
        "dialysis": ""
    },
    {
        "name": "누니랑성모안과의원",
        "hurl": "",
        "lat": 37.5541596,
        "lon": 127.154533,
        "highblood": "",
        "lungCa": "",
        "stomachCa": "",
        "liverCa": "",
        "bowelCa": "",
        "breastCa": "",
        "cesarean": "",
        "antibiotics": "",
        "injection": 1,
        "diabetes": "",
        "asthma": "",
        "dialysis": ""
    },
    {
        "name": "늘편한내과의원",
        "hurl": "",
        "lat": 37.5248187542,
        "lon": 127.134584986,
        "highblood": "양호",
        "lungCa": "",
        "stomachCa": "",
        "liverCa": "",
        "bowelCa": "",
        "breastCa": "",
        "cesarean": "",
        "antibiotics": 1,
        "injection": 2,
        "diabetes": "양호",
        "asthma": "",
        "dialysis": ""
    },
    {
        "name": "늘푸른정신과의원",
        "hurl": "",
        "lat": 37.5352473121,
        "lon": 127.132662195,
        "highblood": "",
        "lungCa": "",
        "stomachCa": "",
        "liverCa": "",
        "bowelCa": "",
        "breastCa": "",
        "cesarean": "",
        "antibiotics": "",
        "injection": "",
        "diabetes": "",
        "asthma": "",
        "dialysis": ""
    },
    {
        "name": "늘푸른정형외과의원",
        "hurl": "",
        "lat": 37.548557,
        "lon": 127.1433282,
        "highblood": "",
        "lungCa": "",
        "stomachCa": "",
        "liverCa": "",
        "bowelCa": "",
        "breastCa": "",
        "cesarean": "",
        "antibiotics": 1,
        "injection": 2,
        "diabetes": "",
        "asthma": "",
        "dialysis": ""
    }
][
    {
        "name": "다나마취통증의학과의원",
        "hurl": "",
        "lat": 37.5496464959,
        "lon": 127.128296928,
        "highblood": "",
        "lungCa": "",
        "stomachCa": "",
        "liverCa": "",
        "bowelCa": "",
        "breastCa": "",
        "cesarean": "",
        "antibiotics": "",
        "injection": 3,
        "diabetes": "",
        "asthma": "",
        "dialysis": ""
    },
    {
        "name": "다사랑산부인과의원",
        "hurl": "",
        "lat": 37.5343350876,
        "lon": 127.13619059,
        "highblood": "",
        "lungCa": "",
        "stomachCa": "",
        "liverCa": "",
        "bowelCa": "",
        "breastCa": "",
        "cesarean": 3,
        "antibiotics": "",
        "injection": 5,
        "diabetes": "",
        "asthma": "",
        "dialysis": ""
    },
    {
        "name": "다온소아청소년과의원",
        "hurl": "",
        "lat": 37.5649412,
        "lon": 127.1746364,
        "highblood": "",
        "lungCa": "",
        "stomachCa": "",
        "liverCa": "",
        "bowelCa": "",
        "breastCa": "",
        "cesarean": "",
        "antibiotics": 1,
        "injection": 1,
        "diabetes": "",
        "asthma": "",
        "dialysis": ""
    },
    {
        "name": "다올의원",
        "hurl": "",
        "lat": 37.5416472221,
        "lon": 127.130134394,
        "highblood": "",
        "lungCa": "",
        "stomachCa": "",
        "liverCa": "",
        "bowelCa": "",
        "breastCa": "",
        "cesarean": "",
        "antibiotics": "",
        "injection": 5,
        "diabetes": "",
        "asthma": "",
        "dialysis": ""
    },
    {
        "name": "닥터(Dr.)고소아과의원",
        "hurl": "",
        "lat": 37.5546179722,
        "lon": 127.154104143,
        "highblood": "",
        "lungCa": "",
        "stomachCa": "",
        "liverCa": "",
        "bowelCa": "",
        "breastCa": "",
        "cesarean": "",
        "antibiotics": 2,
        "injection": 3,
        "diabetes": "",
        "asthma": "",
        "dialysis": ""
    },
    {
        "name": "더줌마취통증의학과의원",
        "hurl": "",
        "lat": 37.5546797886,
        "lon": 127.15368327,
        "highblood": "",
        "lungCa": "",
        "stomachCa": "",
        "liverCa": "",
        "bowelCa": "",
        "breastCa": "",
        "cesarean": "",
        "antibiotics": "",
        "injection": "",
        "diabetes": "",
        "asthma": "",
        "dialysis": ""
    },
    {
        "name": "동진외과의원",
        "hurl": "",
        "lat": 37.5273944381,
        "lon": 127.135616842,
        "highblood": "",
        "lungCa": "",
        "stomachCa": "",
        "liverCa": "",
        "bowelCa": "",
        "breastCa": "",
        "cesarean": "",
        "antibiotics": 4,
        "injection": 4,
        "diabetes": "",
        "asthma": "",
        "dialysis": ""
    },
    {
        "name": "두영철내과의원",
        "hurl": "",
        "lat": 37.5510523658,
        "lon": 127.143671893,
        "highblood": "양호",
        "lungCa": "",
        "stomachCa": "",
        "liverCa": "",
        "bowelCa": "",
        "breastCa": "",
        "cesarean": "",
        "antibiotics": 1,
        "injection": 2,
        "diabetes": "양호",
        "asthma": "",
        "dialysis": ""
    },
    {
        "name": "드림성모이비인후과의원",
        "hurl": "",
        "lat": 37.5405096126,
        "lon": 127.128991857,
        "highblood": "",
        "lungCa": "",
        "stomachCa": "",
        "liverCa": "",
        "bowelCa": "",
        "breastCa": "",
        "cesarean": "",
        "antibiotics": 3,
        "injection": 3,
        "diabetes": "",
        "asthma": "",
        "dialysis": ""
    }
][
    {
        "name": "드림온비뇨기과의원",
        "hurl": "",
        "lat": 37.5380173,
        "lon": 127.1237543,
        "highblood": "",
        "lungCa": "",
        "stomachCa": "",
        "liverCa": "",
        "bowelCa": "",
        "breastCa": "",
        "cesarean": "",
        "antibiotics": "",
        "injection": 4,
        "diabetes": "",
        "asthma": "",
        "dialysis": ""
    },
    {
        "name": "드림재활의학과의원",
        "hurl": "",
        "lat": 37.5511428952,
        "lon": 127.127611439,
        "highblood": "",
        "lungCa": "",
        "stomachCa": "",
        "liverCa": "",
        "bowelCa": "",
        "breastCa": "",
        "cesarean": "",
        "antibiotics": "",
        "injection": 5,
        "diabetes": "",
        "asthma": "",
        "dialysis": ""
    },
    {
        "name": "라르떼의원",
        "hurl": "http://www.larte.kr",
        "lat": 37.5405571775,
        "lon": 127.12497735,
        "highblood": "",
        "lungCa": "",
        "stomachCa": "",
        "liverCa": "",
        "bowelCa": "",
        "breastCa": "",
        "cesarean": "",
        "antibiotics": "",
        "injection": 4,
        "diabetes": "",
        "asthma": "",
        "dialysis": ""
    },
    {
        "name": "라임의원",
        "hurl": "http://www.conel.co.kr",
        "lat": 37.5572249246,
        "lon": 127.168980829,
        "highblood": "",
        "lungCa": "",
        "stomachCa": "",
        "liverCa": "",
        "bowelCa": "",
        "breastCa": "",
        "cesarean": "",
        "antibiotics": "",
        "injection": 5,
        "diabetes": "",
        "asthma": "",
        "dialysis": ""
    },
    {
        "name": "래미피부과의원",
        "hurl": "http://www.raemiskin.co.kr/",
        "lat": 37.5280644851,
        "lon": 127.135875995,
        "highblood": "",
        "lungCa": "",
        "stomachCa": "",
        "liverCa": "",
        "bowelCa": "",
        "breastCa": "",
        "cesarean": "",
        "antibiotics": "",
        "injection": 3,
        "diabetes": "",
        "asthma": "",
        "dialysis": ""
    },
    {
        "name": "러브미의원",
        "hurl": "http://www.happymi.com/",
        "lat": 37.5399496932,
        "lon": 127.123464654,
        "highblood": "",
        "lungCa": "",
        "stomachCa": "",
        "liverCa": "",
        "bowelCa": "",
        "breastCa": "",
        "cesarean": "",
        "antibiotics": "",
        "injection": 4,
        "diabetes": "",
        "asthma": "",
        "dialysis": ""
    },
    {
        "name": "로앤산부인과의원",
        "hurl": "http://ch.roen.kr",
        "lat": 37.5385027585,
        "lon": 127.125109698,
        "highblood": "",
        "lungCa": "",
        "stomachCa": "",
        "liverCa": "",
        "bowelCa": "",
        "breastCa": "",
        "cesarean": "",
        "antibiotics": "",
        "injection": 2,
        "diabetes": "",
        "asthma": "",
        "dialysis": ""
    },
    {
        "name": "류마내과의원",
        "hurl": "http://www.rheumanet.com",
        "lat": 37.535761037,
        "lon": 127.134120394,
        "highblood": "",
        "lungCa": "",
        "stomachCa": "",
        "liverCa": "",
        "bowelCa": "",
        "breastCa": "",
        "cesarean": "",
        "antibiotics": 1,
        "injection": 4,
        "diabetes": "",
        "asthma": "양호",
        "dialysis": ""
    }
][
    {
        "name": "리드힐정형외과마취통증의학과의원",
        "hurl": "",
        "lat": 37.5377692256,
        "lon": 127.139681749,
        "highblood": "",
        "lungCa": "",
        "stomachCa": "",
        "liverCa": "",
        "bowelCa": "",
        "breastCa": "",
        "cesarean": "",
        "antibiotics": "",
        "injection": 4,
        "diabetes": "",
        "asthma": "",
        "dialysis": ""
    },
    {
        "name": "리앤안의원",
        "hurl": "",
        "lat": 37.5376479682,
        "lon": 127.125714735,
        "highblood": "",
        "lungCa": "",
        "stomachCa": "",
        "liverCa": "",
        "bowelCa": "",
        "breastCa": "",
        "cesarean": "",
        "antibiotics": "",
        "injection": 3,
        "diabetes": "",
        "asthma": "",
        "dialysis": ""
    },
    {
        "name": "린피부과의원",
        "hurl": "",
        "lat": 37.5375134492,
        "lon": 127.139590755,
        "highblood": "",
        "lungCa": "",
        "stomachCa": "",
        "liverCa": "",
        "bowelCa": "",
        "breastCa": "",
        "cesarean": "",
        "antibiotics": "",
        "injection": 1,
        "diabetes": "",
        "asthma": "",
        "dialysis": ""
    },
    {
        "name": "마디척의원",
        "hurl": "http://www.mdchuck.com",
        "lat": 37.5377167809,
        "lon": 127.12539804,
        "highblood": "",
        "lungCa": "",
        "stomachCa": "",
        "liverCa": "",
        "bowelCa": "",
        "breastCa": "",
        "cesarean": "",
        "antibiotics": "",
        "injection": 3,
        "diabetes": "",
        "asthma": "",
        "dialysis": ""
    },
    {
        "name": "마리아나외과의원",
        "hurl": "http://www.marianavarix.com",
        "lat": 37.5380500481,
        "lon": 127.123787385,
        "highblood": "",
        "lungCa": "",
        "stomachCa": "",
        "liverCa": "",
        "bowelCa": "",
        "breastCa": "",
        "cesarean": "",
        "antibiotics": "",
        "injection": 1,
        "diabetes": "",
        "asthma": "",
        "dialysis": ""
    },
    {
        "name": "마음안정신건강의학과의원",
        "hurl": "http://www.mind-an.co.kr",
        "lat": 37.5397552337,
        "lon": 127.123314976,
        "highblood": "",
        "lungCa": "",
        "stomachCa": "",
        "liverCa": "",
        "bowelCa": "",
        "breastCa": "",
        "cesarean": "",
        "antibiotics": "",
        "injection": "",
        "diabetes": "",
        "asthma": "",
        "dialysis": ""
    },
    {
        "name": "맑은샘의원",
        "hurl": "http://www.okstress.com/",
        "lat": 37.5533513916,
        "lon": 127.143934334,
        "highblood": "",
        "lungCa": "",
        "stomachCa": "",
        "liverCa": "",
        "bowelCa": "",
        "breastCa": "",
        "cesarean": "",
        "antibiotics": "",
        "injection": "",
        "diabetes": "",
        "asthma": "",
        "dialysis": ""
    },
    {
        "name": "맑은성모이비인후과의원",
        "hurl": "",
        "lat": 37.5507450373,
        "lon": 127.171424167,
        "highblood": "",
        "lungCa": "",
        "stomachCa": "",
        "liverCa": "",
        "bowelCa": "",
        "breastCa": "",
        "cesarean": "",
        "antibiotics": 3,
        "injection": 3,
        "diabetes": "",
        "asthma": "",
        "dialysis": ""
    },
    {
        "name": "맑은연세안과의원",
        "hurl": "",
        "lat": 37.551546419,
        "lon": 127.127725295,
        "highblood": "",
        "lungCa": "",
        "stomachCa": "",
        "liverCa": "",
        "bowelCa": "",
        "breastCa": "",
        "cesarean": "",
        "antibiotics": "",
        "injection": 1,
        "diabetes": "",
        "asthma": "",
        "dialysis": ""
    }
][
    {
        "name": "메디안비뇨기과의원",
        "hurl": "",
        "lat": 37.5376928927,
        "lon": 127.140229236,
        "highblood": "",
        "lungCa": "",
        "stomachCa": "",
        "liverCa": "",
        "bowelCa": "",
        "breastCa": "",
        "cesarean": "",
        "antibiotics": "",
        "injection": 5,
        "diabetes": "",
        "asthma": "",
        "dialysis": ""
    },
    {
        "name": "명가마취통증의학과의원",
        "hurl": "",
        "lat": 37.5605209423,
        "lon": 127.162437362,
        "highblood": "",
        "lungCa": "",
        "stomachCa": "",
        "liverCa": "",
        "bowelCa": "",
        "breastCa": "",
        "cesarean": "",
        "antibiotics": 1,
        "injection": 1,
        "diabetes": "",
        "asthma": "",
        "dialysis": ""
    },
    {
        "name": "명성연세내과의원",
        "hurl": "",
        "lat": 37.5501555227,
        "lon": 127.146159808,
        "highblood": "양호",
        "lungCa": "",
        "stomachCa": "",
        "liverCa": "",
        "bowelCa": "",
        "breastCa": "",
        "cesarean": "",
        "antibiotics": 1,
        "injection": 3,
        "diabetes": "양호",
        "asthma": "",
        "dialysis": ""
    },
    {
        "name": "명성정형외과의원",
        "hurl": "",
        "lat": 37.5546466,
        "lon": 127.1540839,
        "highblood": "",
        "lungCa": "",
        "stomachCa": "",
        "liverCa": "",
        "bowelCa": "",
        "breastCa": "",
        "cesarean": "",
        "antibiotics": "",
        "injection": 1,
        "diabetes": "",
        "asthma": "",
        "dialysis": ""
    },
    {
        "name": "명일건내과의원",
        "hurl": "",
        "lat": 37.5519645557,
        "lon": 127.154777688,
        "highblood": "양호",
        "lungCa": "",
        "stomachCa": "",
        "liverCa": "",
        "bowelCa": "",
        "breastCa": "",
        "cesarean": "",
        "antibiotics": 1,
        "injection": 3,
        "diabetes": "양호",
        "asthma": "",
        "dialysis": ""
    }
][
    {
        "name": "명일성모내과의원",
        "hurl": "",
        "lat": 37.5526713447,
        "lon": 127.154466803,
        "highblood": "양호",
        "lungCa": "",
        "stomachCa": "",
        "liverCa": "",
        "bowelCa": "",
        "breastCa": "",
        "cesarean": "",
        "antibiotics": 5,
        "injection": 2,
        "diabetes": "양호",
        "asthma": "",
        "dialysis": 3
    },
    {
        "name": "명일엠의원",
        "hurl": "",
        "lat": 37.5524216418,
        "lon": 127.143869172,
        "highblood": "",
        "lungCa": "",
        "stomachCa": "",
        "liverCa": "",
        "bowelCa": "",
        "breastCa": "",
        "cesarean": "",
        "antibiotics": "",
        "injection": "",
        "diabetes": "",
        "asthma": "",
        "dialysis": ""
    },
    {
        "name": "명일정형외과의원",
        "hurl": "",
        "lat": 37.5524182307,
        "lon": 127.143710729,
        "highblood": "",
        "lungCa": "",
        "stomachCa": "",
        "liverCa": "",
        "bowelCa": "",
        "breastCa": "",
        "cesarean": "",
        "antibiotics": "",
        "injection": 5,
        "diabetes": "",
        "asthma": "",
        "dialysis": ""
    },
    {
        "name": "모세정형외과의원",
        "hurl": "http://www.mose119.com/",
        "lat": 37.5438992,
        "lon": 127.1425725,
        "highblood": "",
        "lungCa": "",
        "stomachCa": "",
        "liverCa": "",
        "bowelCa": "",
        "breastCa": "",
        "cesarean": "",
        "antibiotics": "",
        "injection": 2,
        "diabetes": "",
        "asthma": "",
        "dialysis": ""
    },
    {
        "name": "목차수내과의원",
        "hurl": "",
        "lat": 37.5507913956,
        "lon": 127.171763772,
        "highblood": "양호",
        "lungCa": "",
        "stomachCa": "",
        "liverCa": "",
        "bowelCa": "",
        "breastCa": "",
        "cesarean": "",
        "antibiotics": 2,
        "injection": 4,
        "diabetes": "양호",
        "asthma": "",
        "dialysis": ""
    },
    {
        "name": "무지개소아청소년과의원",
        "hurl": "",
        "lat": 37.5576884154,
        "lon": 127.148601027,
        "highblood": "",
        "lungCa": "",
        "stomachCa": "",
        "liverCa": "",
        "bowelCa": "",
        "breastCa": "",
        "cesarean": "",
        "antibiotics": 2,
        "injection": 1,
        "diabetes": "",
        "asthma": "",
        "dialysis": ""
    },
    {
        "name": "문광호내과의원",
        "hurl": "",
        "lat": 37.551546419,
        "lon": 127.127725295,
        "highblood": "양호",
        "lungCa": "",
        "stomachCa": "",
        "liverCa": "",
        "bowelCa": "",
        "breastCa": "",
        "cesarean": "",
        "antibiotics": 1,
        "injection": 2,
        "diabetes": "",
        "asthma": "",
        "dialysis": ""
    },
    {
        "name": "미래소아청소년과의원",
        "hurl": "",
        "lat": 37.5501555227,
        "lon": 127.146159808,
        "highblood": "",
        "lungCa": "",
        "stomachCa": "",
        "liverCa": "",
        "bowelCa": "",
        "breastCa": "",
        "cesarean": "",
        "antibiotics": 4,
        "injection": 1,
        "diabetes": "",
        "asthma": "",
        "dialysis": ""
    },
    {
        "name": "미래이비인후과의원",
        "hurl": "",
        "lat": 37.5280644851,
        "lon": 127.135875995,
        "highblood": "",
        "lungCa": "",
        "stomachCa": "",
        "liverCa": "",
        "bowelCa": "",
        "breastCa": "",
        "cesarean": "",
        "antibiotics": 5,
        "injection": 4,
        "diabetes": "",
        "asthma": "",
        "dialysis": ""
    }
][
    {
        "name": "미모아피부과의원",
        "hurl": "",
        "lat": 37.5248187542,
        "lon": 127.134584986,
        "highblood": "",
        "lungCa": "",
        "stomachCa": "",
        "liverCa": "",
        "bowelCa": "",
        "breastCa": "",
        "cesarean": "",
        "antibiotics": "",
        "injection": 2,
        "diabetes": "",
        "asthma": "",
        "dialysis": ""
    },
    {
        "name": "미애로여성의원",
        "hurl": "",
        "lat": 37.5508648295,
        "lon": 127.128127004,
        "highblood": "",
        "lungCa": "",
        "stomachCa": "",
        "liverCa": "",
        "bowelCa": "",
        "breastCa": "",
        "cesarean": "",
        "antibiotics": "",
        "injection": 2,
        "diabetes": "",
        "asthma": "",
        "dialysis": ""
    },
    {
        "name": "미앤미의원",
        "hurl": "http://www.mipretty.co.kr",
        "lat": 37.5397552337,
        "lon": 127.123314976,
        "highblood": "",
        "lungCa": "",
        "stomachCa": "",
        "liverCa": "",
        "bowelCa": "",
        "breastCa": "",
        "cesarean": "",
        "antibiotics": "",
        "injection": 2,
        "diabetes": "",
        "asthma": "",
        "dialysis": ""
    },
    {
        "name": "미하나의원",
        "hurl": "http://www.mi1.co.kr/index.asp",
        "lat": 37.545099321,
        "lon": 127.143053943,
        "highblood": "",
        "lungCa": "",
        "stomachCa": "",
        "liverCa": "",
        "bowelCa": "",
        "breastCa": "",
        "cesarean": "",
        "antibiotics": "",
        "injection": 3,
        "diabetes": "",
        "asthma": "",
        "dialysis": ""
    },
    {
        "name": "바로나신경외과의원",
        "hurl": "",
        "lat": 37.5351866445,
        "lon": 127.144437975,
        "highblood": "",
        "lungCa": "",
        "stomachCa": "",
        "liverCa": "",
        "bowelCa": "",
        "breastCa": "",
        "cesarean": "",
        "antibiotics": "",
        "injection": 4,
        "diabetes": "",
        "asthma": "",
        "dialysis": ""
    },
    {
        "name": "바로척척의원",
        "hurl": "",
        "lat": 37.535761037,
        "lon": 127.134120394,
        "highblood": "",
        "lungCa": "",
        "stomachCa": "",
        "liverCa": "",
        "bowelCa": "",
        "breastCa": "",
        "cesarean": "",
        "antibiotics": "",
        "injection": 3,
        "diabetes": "",
        "asthma": "",
        "dialysis": ""
    },
    {
        "name": "박규홍비뇨기과의원",
        "hurl": "",
        "lat": 37.5393407888,
        "lon": 127.123300715,
        "highblood": "",
        "lungCa": "",
        "stomachCa": "",
        "liverCa": "",
        "bowelCa": "",
        "breastCa": "",
        "cesarean": "",
        "antibiotics": "",
        "injection": 4,
        "diabetes": "",
        "asthma": "",
        "dialysis": ""
    },
    {
        "name": "박노준산부인과의원",
        "hurl": "http://www.pnjobgy.com/",
        "lat": 37.5416788327,
        "lon": 127.130881255,
        "highblood": "",
        "lungCa": "",
        "stomachCa": "",
        "liverCa": "",
        "bowelCa": "",
        "breastCa": "",
        "cesarean": "",
        "antibiotics": "",
        "injection": 5,
        "diabetes": "",
        "asthma": "",
        "dialysis": ""
    },
    {
        "name": "박상화정형외과의원",
        "hurl": "",
        "lat": 37.5241954272,
        "lon": 127.134439065,
        "highblood": "",
        "lungCa": "",
        "stomachCa": "",
        "liverCa": "",
        "bowelCa": "",
        "breastCa": "",
        "cesarean": "",
        "antibiotics": "",
        "injection": 4,
        "diabetes": "",
        "asthma": "",
        "dialysis": ""
    },
    {
        "name": "박세용정형외과의원",
        "hurl": "",
        "lat": 37.5503508536,
        "lon": 127.145580781,
        "highblood": "",
        "lungCa": "",
        "stomachCa": "",
        "liverCa": "",
        "bowelCa": "",
        "breastCa": "",
        "cesarean": "",
        "antibiotics": "",
        "injection": 5,
        "diabetes": "",
        "asthma": "",
        "dialysis": ""
    }
][
    {
        "name": "박영우정형외과의원",
        "hurl": "",
        "lat": 37.5461914807,
        "lon": 127.133700021,
        "highblood": "",
        "lungCa": "",
        "stomachCa": "",
        "liverCa": "",
        "bowelCa": "",
        "breastCa": "",
        "cesarean": "",
        "antibiotics": 2,
        "injection": 5,
        "diabetes": "",
        "asthma": "",
        "dialysis": ""
    },
    {
        "name": "박종수신경외과의원",
        "hurl": "",
        "lat": 37.5508833638,
        "lon": 127.143354703,
        "highblood": "",
        "lungCa": "",
        "stomachCa": "",
        "liverCa": "",
        "bowelCa": "",
        "breastCa": "",
        "cesarean": "",
        "antibiotics": "",
        "injection": 2,
        "diabetes": "",
        "asthma": "",
        "dialysis": ""
    },
    {
        "name": "박종영소아청소년과의원",
        "hurl": "",
        "lat": 37.5349954,
        "lon": 127.1439055,
        "highblood": "",
        "lungCa": "",
        "stomachCa": "",
        "liverCa": "",
        "bowelCa": "",
        "breastCa": "",
        "cesarean": "",
        "antibiotics": 1,
        "injection": 1,
        "diabetes": "",
        "asthma": "",
        "dialysis": ""
    },
    {
        "name": "밝은미래정신건강의학과의원",
        "hurl": "",
        "lat": 37.5380500481,
        "lon": 127.123787385,
        "highblood": "",
        "lungCa": "",
        "stomachCa": "",
        "liverCa": "",
        "bowelCa": "",
        "breastCa": "",
        "cesarean": "",
        "antibiotics": "",
        "injection": "",
        "diabetes": "",
        "asthma": "",
        "dialysis": ""
    },
    {
        "name": "백승희이비인후과의원",
        "hurl": "",
        "lat": 37.5520045611,
        "lon": 127.15450164,
        "highblood": "",
        "lungCa": "",
        "stomachCa": "",
        "liverCa": "",
        "bowelCa": "",
        "breastCa": "",
        "cesarean": "",
        "antibiotics": 1,
        "injection": 1,
        "diabetes": "",
        "asthma": "",
        "dialysis": ""
    },
    {
        "name": "본의원",
        "hurl": "",
        "lat": 37.5507466085,
        "lon": 127.127470438,
        "highblood": "",
        "lungCa": "",
        "stomachCa": "",
        "liverCa": "",
        "bowelCa": "",
        "breastCa": "",
        "cesarean": "",
        "antibiotics": "",
        "injection": 4,
        "diabetes": "",
        "asthma": "",
        "dialysis": ""
    },
    {
        "name": "본이비인후과의원",
        "hurl": "",
        "lat": 37.5572249246,
        "lon": 127.168980829,
        "highblood": "",
        "lungCa": "",
        "stomachCa": "",
        "liverCa": "",
        "bowelCa": "",
        "breastCa": "",
        "cesarean": "",
        "antibiotics": 4,
        "injection": 2,
        "diabetes": "",
        "asthma": "",
        "dialysis": ""
    },
    {
        "name": "본정형외과의원",
        "hurl": "",
        "lat": 37.5408312954,
        "lon": 127.146720938,
        "highblood": "",
        "lungCa": "",
        "stomachCa": "",
        "liverCa": "",
        "bowelCa": "",
        "breastCa": "",
        "cesarean": "",
        "antibiotics": "",
        "injection": 4,
        "diabetes": "",
        "asthma": "",
        "dialysis": ""
    },
    {
        "name": "봄으로가는의원",
        "hurl": "http://bomskin.com",
        "lat": 37.53857906,
        "lon": 127.14057939,
        "highblood": "",
        "lungCa": "",
        "stomachCa": "",
        "liverCa": "",
        "bowelCa": "",
        "breastCa": "",
        "cesarean": "",
        "antibiotics": "",
        "injection": 3,
        "diabetes": "",
        "asthma": "",
        "dialysis": ""
    },
    {
        "name": "봄의약속안과의원",
        "hurl": "",
        "lat": 37.5456649218,
        "lon": 127.143240604,
        "highblood": "",
        "lungCa": "",
        "stomachCa": "",
        "liverCa": "",
        "bowelCa": "",
        "breastCa": "",
        "cesarean": "",
        "antibiotics": "",
        "injection": 1,
        "diabetes": "",
        "asthma": "",
        "dialysis": ""
    }
][
    {
        "name": "브라이트피부과의원",
        "hurl": "",
        "lat": 37.551016834,
        "lon": 127.127538798,
        "highblood": "",
        "lungCa": "",
        "stomachCa": "",
        "liverCa": "",
        "bowelCa": "",
        "breastCa": "",
        "cesarean": "",
        "antibiotics": "",
        "injection": 2,
        "diabetes": "",
        "asthma": "",
        "dialysis": ""
    },
    {
        "name": "비너스의원",
        "hurl": "http://www.02-3427-2103.kti114.net",
        "lat": 37.5510523658,
        "lon": 127.143671893,
        "highblood": "",
        "lungCa": "",
        "stomachCa": "",
        "liverCa": "",
        "bowelCa": "",
        "breastCa": "",
        "cesarean": "",
        "antibiotics": "",
        "injection": "",
        "diabetes": "",
        "asthma": "",
        "dialysis": ""
    },
    {
        "name": "사과나무정신건강의학과의원",
        "hurl": "",
        "lat": 37.5398625475,
        "lon": 127.124084571,
        "highblood": "",
        "lungCa": "",
        "stomachCa": "",
        "liverCa": "",
        "bowelCa": "",
        "breastCa": "",
        "cesarean": "",
        "antibiotics": "",
        "injection": "",
        "diabetes": "",
        "asthma": "",
        "dialysis": ""
    },
    {
        "name": "사회복지법인주몽재활의원",
        "hurl": "",
        "lat": 37.5461974001,
        "lon": 127.16337492,
        "highblood": "",
        "lungCa": "",
        "stomachCa": "",
        "liverCa": "",
        "bowelCa": "",
        "breastCa": "",
        "cesarean": "",
        "antibiotics": "",
        "injection": "",
        "diabetes": "",
        "asthma": "",
        "dialysis": ""
    },
    {
        "name": "삼성드림소아청소년과의원",
        "hurl": "",
        "lat": 37.5656489,
        "lon": 127.1738035,
        "highblood": "",
        "lungCa": "",
        "stomachCa": "",
        "liverCa": "",
        "bowelCa": "",
        "breastCa": "",
        "cesarean": "",
        "antibiotics": 2,
        "injection": 1,
        "diabetes": "",
        "asthma": "",
        "dialysis": ""
    },
    {
        "name": "삼성엔지니어링(주) 부속의원",
        "hurl": "",
        "lat": 37.5488183814,
        "lon": 127.175326148,
        "highblood": "",
        "lungCa": "",
        "stomachCa": "",
        "liverCa": "",
        "bowelCa": "",
        "breastCa": "",
        "cesarean": "",
        "antibiotics": 2,
        "injection": 2,
        "diabetes": "",
        "asthma": "",
        "dialysis": ""
    },
    {
        "name": "삼성의원",
        "hurl": "",
        "lat": 37.5255788366,
        "lon": 127.13490311,
        "highblood": "",
        "lungCa": "",
        "stomachCa": "",
        "liverCa": "",
        "bowelCa": "",
        "breastCa": "",
        "cesarean": "",
        "antibiotics": "",
        "injection": 4,
        "diabetes": "",
        "asthma": "",
        "dialysis": ""
    },
    {
        "name": "삼육오열린의원",
        "hurl": "http://www.365medical.co.kr",
        "lat": 37.5405571775,
        "lon": 127.12497735,
        "highblood": "양호",
        "lungCa": "",
        "stomachCa": "",
        "liverCa": "",
        "bowelCa": "",
        "breastCa": "",
        "cesarean": "",
        "antibiotics": 4,
        "injection": 2,
        "diabetes": "양호",
        "asthma": "",
        "dialysis": ""
    },
    {
        "name": "상일에이치(H)내과의원",
        "hurl": "",
        "lat": 37.552465767,
        "lon": 127.17522605,
        "highblood": "양호",
        "lungCa": "",
        "stomachCa": "",
        "liverCa": "",
        "bowelCa": "",
        "breastCa": "",
        "cesarean": "",
        "antibiotics": 2,
        "injection": 2,
        "diabetes": "",
        "asthma": "",
        "dialysis": ""
    }
][
    {
        "name": "새론이비인후과의원",
        "hurl": "",
        "lat": 37.5576884154,
        "lon": 127.148601027,
        "highblood": "",
        "lungCa": "",
        "stomachCa": "",
        "liverCa": "",
        "bowelCa": "",
        "breastCa": "",
        "cesarean": "",
        "antibiotics": 4,
        "injection": 1,
        "diabetes": "",
        "asthma": "",
        "dialysis": ""
    },
    {
        "name": "새롬비뇨기과의원",
        "hurl": "http://www.sairom.net",
        "lat": 37.5377967016,
        "lon": 127.12480076,
        "highblood": "",
        "lungCa": "",
        "stomachCa": "",
        "liverCa": "",
        "bowelCa": "",
        "breastCa": "",
        "cesarean": "",
        "antibiotics": "",
        "injection": 3,
        "diabetes": "",
        "asthma": "",
        "dialysis": ""
    },
    {
        "name": "서울가정의학과의원",
        "hurl": "",
        "lat": 37.5367598831,
        "lon": 127.13986995,
        "highblood": "양호",
        "lungCa": "",
        "stomachCa": "",
        "liverCa": "",
        "bowelCa": "",
        "breastCa": "",
        "cesarean": "",
        "antibiotics": "",
        "injection": 3,
        "diabetes": "양호",
        "asthma": "양호",
        "dialysis": ""
    },
    {
        "name": "서울내과의원",
        "hurl": "http://www.drcancer.or.kr/",
        "lat": 37.5333884285,
        "lon": 127.121906082,
        "highblood": "",
        "lungCa": "",
        "stomachCa": "",
        "liverCa": "",
        "bowelCa": "",
        "breastCa": "",
        "cesarean": "",
        "antibiotics": "",
        "injection": 3,
        "diabetes": "",
        "asthma": "",
        "dialysis": ""
    },
    {
        "name": "서울늘열린의원",
        "hurl": "",
        "lat": 37.5263389233,
        "lon": 127.135216716,
        "highblood": "",
        "lungCa": "",
        "stomachCa": "",
        "liverCa": "",
        "bowelCa": "",
        "breastCa": "",
        "cesarean": "",
        "antibiotics": 1,
        "injection": 3,
        "diabetes": "",
        "asthma": "",
        "dialysis": ""
    },
    {
        "name": "서울메디안의원",
        "hurl": "",
        "lat": 37.5368768027,
        "lon": 127.135412248,
        "highblood": "",
        "lungCa": "",
        "stomachCa": "",
        "liverCa": "",
        "bowelCa": "",
        "breastCa": "",
        "cesarean": "",
        "antibiotics": 5,
        "injection": 5,
        "diabetes": "",
        "asthma": "",
        "dialysis": ""
    },
    {
        "name": "서울삼성내과의원",
        "hurl": "",
        "lat": 37.5552529,
        "lon": 127.1403437,
        "highblood": "양호",
        "lungCa": "",
        "stomachCa": "",
        "liverCa": "",
        "bowelCa": "",
        "breastCa": "",
        "cesarean": "",
        "antibiotics": 1,
        "injection": 3,
        "diabetes": "",
        "asthma": "",
        "dialysis": ""
    },
    {
        "name": "서울소아청소년과의원",
        "hurl": "",
        "lat": 37.5341371063,
        "lon": 127.14506954,
        "highblood": "",
        "lungCa": "",
        "stomachCa": "",
        "liverCa": "",
        "bowelCa": "",
        "breastCa": "",
        "cesarean": "",
        "antibiotics": 1,
        "injection": 1,
        "diabetes": "",
        "asthma": "",
        "dialysis": ""
    },
    {
        "name": "서울수소아청소년과의원",
        "hurl": "",
        "lat": 37.5503508536,
        "lon": 127.145580781,
        "highblood": "",
        "lungCa": "",
        "stomachCa": "",
        "liverCa": "",
        "bowelCa": "",
        "breastCa": "",
        "cesarean": "",
        "antibiotics": 1,
        "injection": 1,
        "diabetes": "",
        "asthma": "",
        "dialysis": ""
    },
    {
        "name": "서울우리의원",
        "hurl": "",
        "lat": 37.5377599414,
        "lon": 127.135273543,
        "highblood": "",
        "lungCa": "",
        "stomachCa": "",
        "liverCa": "",
        "bowelCa": "",
        "breastCa": "",
        "cesarean": "",
        "antibiotics": "",
        "injection": 4,
        "diabetes": "",
        "asthma": "",
        "dialysis": 4
    }
][
    {
        "name": "서울유의원",
        "hurl": "",
        "lat": 37.537127617,
        "lon": 127.142776215,
        "highblood": "",
        "lungCa": "",
        "stomachCa": "",
        "liverCa": "",
        "bowelCa": "",
        "breastCa": "",
        "cesarean": "",
        "antibiotics": 1,
        "injection": 3,
        "diabetes": "",
        "asthma": "",
        "dialysis": ""
    },
    {
        "name": "서울장안과의원",
        "hurl": "",
        "lat": 37.5510523658,
        "lon": 127.143671893,
        "highblood": "",
        "lungCa": "",
        "stomachCa": "",
        "liverCa": "",
        "bowelCa": "",
        "breastCa": "",
        "cesarean": "",
        "antibiotics": "",
        "injection": 1,
        "diabetes": "",
        "asthma": "",
        "dialysis": ""
    },
    {
        "name": "서울정형외과의원",
        "hurl": "",
        "lat": 37.5467272138,
        "lon": 127.134809947,
        "highblood": "",
        "lungCa": "",
        "stomachCa": "",
        "liverCa": "",
        "bowelCa": "",
        "breastCa": "",
        "cesarean": "",
        "antibiotics": "",
        "injection": 1,
        "diabetes": "",
        "asthma": "",
        "dialysis": ""
    },
    {
        "name": "서울준내과의원",
        "hurl": "",
        "lat": 37.5377692256,
        "lon": 127.139681749,
        "highblood": "",
        "lungCa": "",
        "stomachCa": "",
        "liverCa": "",
        "bowelCa": "",
        "breastCa": "",
        "cesarean": "",
        "antibiotics": 4,
        "injection": 4,
        "diabetes": "",
        "asthma": "",
        "dialysis": ""
    },
    {
        "name": "석정우소아과의원",
        "hurl": "",
        "lat": 37.5404637168,
        "lon": 127.146697588,
        "highblood": "",
        "lungCa": "",
        "stomachCa": "",
        "liverCa": "",
        "bowelCa": "",
        "breastCa": "",
        "cesarean": "",
        "antibiotics": 2,
        "injection": 1,
        "diabetes": "",
        "asthma": "",
        "dialysis": ""
    },
    {
        "name": "성모김안과의원",
        "hurl": "",
        "lat": 37.5377692256,
        "lon": 127.139681749,
        "highblood": "",
        "lungCa": "",
        "stomachCa": "",
        "liverCa": "",
        "bowelCa": "",
        "breastCa": "",
        "cesarean": "",
        "antibiotics": "",
        "injection": 3,
        "diabetes": "",
        "asthma": "",
        "dialysis": ""
    },
    {
        "name": "성모안과의원",
        "hurl": "http://www.lasiknara.com",
        "lat": 37.5248187542,
        "lon": 127.134584986,
        "highblood": "",
        "lungCa": "",
        "stomachCa": "",
        "liverCa": "",
        "bowelCa": "",
        "breastCa": "",
        "cesarean": "",
        "antibiotics": "",
        "injection": 1,
        "diabetes": "",
        "asthma": "",
        "dialysis": ""
    },
    {
        "name": "성모정형외과의원",
        "hurl": "",
        "lat": 37.5405093702,
        "lon": 127.129213632,
        "highblood": "",
        "lungCa": "",
        "stomachCa": "",
        "liverCa": "",
        "bowelCa": "",
        "breastCa": "",
        "cesarean": "",
        "antibiotics": 1,
        "injection": 3,
        "diabetes": "",
        "asthma": "",
        "dialysis": ""
    },
    {
        "name": "소망정형외과의원",
        "hurl": "",
        "lat": 37.5306426863,
        "lon": 127.137831133,
        "highblood": "",
        "lungCa": "",
        "stomachCa": "",
        "liverCa": "",
        "bowelCa": "",
        "breastCa": "",
        "cesarean": "",
        "antibiotics": "",
        "injection": 5,
        "diabetes": "",
        "asthma": "",
        "dialysis": ""
    }
][
    {
        "name": "손소아과의원",
        "hurl": "",
        "lat": 37.531278315,
        "lon": 127.127007378,
        "highblood": "양호",
        "lungCa": "",
        "stomachCa": "",
        "liverCa": "",
        "bowelCa": "",
        "breastCa": "",
        "cesarean": "",
        "antibiotics": 1,
        "injection": 3,
        "diabetes": "",
        "asthma": "",
        "dialysis": ""
    },
    {
        "name": "손철호재활의학과의원",
        "hurl": "",
        "lat": 37.5413591471,
        "lon": 127.129912115,
        "highblood": "",
        "lungCa": "",
        "stomachCa": "",
        "liverCa": "",
        "bowelCa": "",
        "breastCa": "",
        "cesarean": "",
        "antibiotics": "",
        "injection": 1,
        "diabetes": "",
        "asthma": "",
        "dialysis": ""
    },
    {
        "name": "송문영소아과의원",
        "hurl": "",
        "lat": 37.5422806838,
        "lon": 127.130895885,
        "highblood": "",
        "lungCa": "",
        "stomachCa": "",
        "liverCa": "",
        "bowelCa": "",
        "breastCa": "",
        "cesarean": "",
        "antibiotics": 1,
        "injection": 2,
        "diabetes": "",
        "asthma": "",
        "dialysis": ""
    },
    {
        "name": "송산부인과의원",
        "hurl": "http://www.dongjugy.co.kr/",
        "lat": 37.5343637122,
        "lon": 127.13321276,
        "highblood": "",
        "lungCa": "",
        "stomachCa": "",
        "liverCa": "",
        "bowelCa": "",
        "breastCa": "",
        "cesarean": "",
        "antibiotics": "",
        "injection": 1,
        "diabetes": "",
        "asthma": "",
        "dialysis": ""
    },
    {
        "name": "수마취통증의학과의원",
        "hurl": "",
        "lat": 37.5501875748,
        "lon": 127.127854248,
        "highblood": "",
        "lungCa": "",
        "stomachCa": "",
        "liverCa": "",
        "bowelCa": "",
        "breastCa": "",
        "cesarean": "",
        "antibiotics": "",
        "injection": 2,
        "diabetes": "",
        "asthma": "",
        "dialysis": ""
    },
    {
        "name": "시원마취통증의학과의원",
        "hurl": "",
        "lat": 37.5366055081,
        "lon": 127.133117181,
        "highblood": "",
        "lungCa": "",
        "stomachCa": "",
        "liverCa": "",
        "bowelCa": "",
        "breastCa": "",
        "cesarean": "",
        "antibiotics": "",
        "injection": 1,
        "diabetes": "",
        "asthma": "",
        "dialysis": ""
    },
    {
        "name": "신경숙산부인과의원",
        "hurl": "",
        "lat": 37.5474960587,
        "lon": 127.1429861,
        "highblood": "",
        "lungCa": "",
        "stomachCa": "",
        "liverCa": "",
        "bowelCa": "",
        "breastCa": "",
        "cesarean": "",
        "antibiotics": "",
        "injection": 2,
        "diabetes": "",
        "asthma": "",
        "dialysis": ""
    },
    {
        "name": "신의의원",
        "hurl": "http://www.goldbody.co.kr/",
        "lat": 37.5405571775,
        "lon": 127.12497735,
        "highblood": "",
        "lungCa": "",
        "stomachCa": "",
        "liverCa": "",
        "bowelCa": "",
        "breastCa": "",
        "cesarean": "",
        "antibiotics": "",
        "injection": "",
        "diabetes": "",
        "asthma": "",
        "dialysis": ""
    },
    {
        "name": "신통방통의원",
        "hurl": "",
        "lat": 37.551016834,
        "lon": 127.127538798,
        "highblood": "",
        "lungCa": "",
        "stomachCa": "",
        "liverCa": "",
        "bowelCa": "",
        "breastCa": "",
        "cesarean": "",
        "antibiotics": 1,
        "injection": 2,
        "diabetes": "",
        "asthma": "",
        "dialysis": ""
    },
    {
        "name": "씨앤씨의원",
        "hurl": "",
        "lat": 37.5532980221,
        "lon": 127.154784972,
        "highblood": "",
        "lungCa": "",
        "stomachCa": "",
        "liverCa": "",
        "bowelCa": "",
        "breastCa": "",
        "cesarean": "",
        "antibiotics": "",
        "injection": 5,
        "diabetes": "",
        "asthma": "",
        "dialysis": ""
    }
][
    {
        "name": "아름다운신경과의원",
        "hurl": "http://www.hysclinic.com/",
        "lat": 37.5480825352,
        "lon": 127.143788408,
        "highblood": "양호",
        "lungCa": "",
        "stomachCa": "",
        "liverCa": "",
        "bowelCa": "",
        "breastCa": "",
        "cesarean": "",
        "antibiotics": "",
        "injection": 2,
        "diabetes": "양호",
        "asthma": "",
        "dialysis": ""
    },
    {
        "name": "아산수내과의원",
        "hurl": "",
        "lat": 37.5401683769,
        "lon": 127.12456936,
        "highblood": "",
        "lungCa": "",
        "stomachCa": "",
        "liverCa": "",
        "bowelCa": "",
        "breastCa": "",
        "cesarean": "",
        "antibiotics": "",
        "injection": 2,
        "diabetes": "",
        "asthma": "",
        "dialysis": 2
    },
    {
        "name": "안아픈세상의원",
        "hurl": "",
        "lat": 37.5299401816,
        "lon": 127.13759452,
        "highblood": "",
        "lungCa": "",
        "stomachCa": "",
        "liverCa": "",
        "bowelCa": "",
        "breastCa": "",
        "cesarean": "",
        "antibiotics": "",
        "injection": 1,
        "diabetes": "",
        "asthma": "",
        "dialysis": ""
    },
    {
        "name": "양성원소아과의원",
        "hurl": "",
        "lat": 37.5546797886,
        "lon": 127.15368327,
        "highblood": "",
        "lungCa": "",
        "stomachCa": "",
        "liverCa": "",
        "bowelCa": "",
        "breastCa": "",
        "cesarean": "",
        "antibiotics": 1,
        "injection": 1,
        "diabetes": "",
        "asthma": "",
        "dialysis": ""
    },
    {
        "name": "엄주명산부인과의원",
        "hurl": "",
        "lat": 37.5574052075,
        "lon": 127.168922385,
        "highblood": "",
        "lungCa": "",
        "stomachCa": "",
        "liverCa": "",
        "bowelCa": "",
        "breastCa": "",
        "cesarean": "",
        "antibiotics": "",
        "injection": 5,
        "diabetes": "",
        "asthma": "",
        "dialysis": ""
    },
    {
        "name": "에스유연세안과의원",
        "hurl": "http://www.suyonsei.com/",
        "lat": 37.5280644851,
        "lon": 127.135875995,
        "highblood": "",
        "lungCa": "",
        "stomachCa": "",
        "liverCa": "",
        "bowelCa": "",
        "breastCa": "",
        "cesarean": "",
        "antibiotics": "",
        "injection": 1,
        "diabetes": "",
        "asthma": "",
        "dialysis": ""
    },
    {
        "name": "연세내과의원",
        "hurl": "http://www.yswooclinic.com/",
        "lat": 37.5487894333,
        "lon": 127.143364272,
        "highblood": "양호",
        "lungCa": "",
        "stomachCa": "",
        "liverCa": "",
        "bowelCa": "",
        "breastCa": "",
        "cesarean": "",
        "antibiotics": 2,
        "injection": 4,
        "diabetes": "",
        "asthma": "양호",
        "dialysis": ""
    }
][
    {
        "name": "연세메디모아의원",
        "hurl": "",
        "lat": 37.5407981552,
        "lon": 127.147286629,
        "highblood": "",
        "lungCa": "",
        "stomachCa": "",
        "liverCa": "",
        "bowelCa": "",
        "breastCa": "",
        "cesarean": "",
        "antibiotics": 5,
        "injection": 5,
        "diabetes": "",
        "asthma": "",
        "dialysis": ""
    },
    {
        "name": "연세바른내과의원",
        "hurl": "",
        "lat": 37.5366055081,
        "lon": 127.133117181,
        "highblood": "",
        "lungCa": "",
        "stomachCa": "",
        "liverCa": "",
        "bowelCa": "",
        "breastCa": "",
        "cesarean": "",
        "antibiotics": "",
        "injection": 3,
        "diabetes": "",
        "asthma": "",
        "dialysis": ""
    },
    {
        "name": "연세성심의원",
        "hurl": "",
        "lat": 37.5457129664,
        "lon": 127.142253953,
        "highblood": "",
        "lungCa": "",
        "stomachCa": "",
        "liverCa": "",
        "bowelCa": "",
        "breastCa": "",
        "cesarean": "",
        "antibiotics": 5,
        "injection": 3,
        "diabetes": "",
        "asthma": "양호",
        "dialysis": ""
    },
    {
        "name": "연세심내과의원",
        "hurl": "http://www.yonseisim.co.kr/",
        "lat": 37.5500558,
        "lon": 127.1440963,
        "highblood": "양호",
        "lungCa": "",
        "stomachCa": "",
        "liverCa": "",
        "bowelCa": "",
        "breastCa": "",
        "cesarean": "",
        "antibiotics": 2,
        "injection": 1,
        "diabetes": "양호",
        "asthma": "",
        "dialysis": 2
    },
    {
        "name": "연세이내과의원",
        "hurl": "",
        "lat": 37.5273106,
        "lon": 127.1397619,
        "highblood": "양호",
        "lungCa": "",
        "stomachCa": "",
        "liverCa": "",
        "bowelCa": "",
        "breastCa": "",
        "cesarean": "",
        "antibiotics": 1,
        "injection": 2,
        "diabetes": "양호",
        "asthma": "",
        "dialysis": ""
    },
    {
        "name": "연세이비인후과의원",
        "hurl": "",
        "lat": 37.5381085546,
        "lon": 127.12639439,
        "highblood": "",
        "lungCa": "",
        "stomachCa": "",
        "liverCa": "",
        "bowelCa": "",
        "breastCa": "",
        "cesarean": "",
        "antibiotics": 4,
        "injection": 4,
        "diabetes": "",
        "asthma": "",
        "dialysis": ""
    },
    {
        "name": "연세정형외과의원",
        "hurl": "",
        "lat": 37.5545513844,
        "lon": 127.134891943,
        "highblood": "",
        "lungCa": "",
        "stomachCa": "",
        "liverCa": "",
        "bowelCa": "",
        "breastCa": "",
        "cesarean": "",
        "antibiotics": "",
        "injection": 5,
        "diabetes": "",
        "asthma": "",
        "dialysis": ""
    },
    {
        "name": "연세제일정형외과의원",
        "hurl": "",
        "lat": 37.5383602,
        "lon": 127.1405355,
        "highblood": "",
        "lungCa": "",
        "stomachCa": "",
        "liverCa": "",
        "bowelCa": "",
        "breastCa": "",
        "cesarean": "",
        "antibiotics": "",
        "injection": 3,
        "diabetes": "",
        "asthma": "",
        "dialysis": ""
    }
][
    {
        "name": "연세주내과의원",
        "hurl": "",
        "lat": 37.5507466085,
        "lon": 127.127470438,
        "highblood": "양호",
        "lungCa": "",
        "stomachCa": "",
        "liverCa": "",
        "bowelCa": "",
        "breastCa": "",
        "cesarean": "",
        "antibiotics": 1,
        "injection": 5,
        "diabetes": "양호",
        "asthma": "양호",
        "dialysis": ""
    },
    {
        "name": "연세척척재활의학과의원",
        "hurl": "",
        "lat": 37.5380826174,
        "lon": 127.139813584,
        "highblood": "",
        "lungCa": "",
        "stomachCa": "",
        "liverCa": "",
        "bowelCa": "",
        "breastCa": "",
        "cesarean": "",
        "antibiotics": "",
        "injection": 2,
        "diabetes": "",
        "asthma": "",
        "dialysis": ""
    },
    {
        "name": "연세필정신건강의학과의원",
        "hurl": "http://www.feelclinic.co.kr",
        "lat": 37.5385027585,
        "lon": 127.125109698,
        "highblood": "",
        "lungCa": "",
        "stomachCa": "",
        "liverCa": "",
        "bowelCa": "",
        "breastCa": "",
        "cesarean": "",
        "antibiotics": "",
        "injection": "",
        "diabetes": "",
        "asthma": "",
        "dialysis": ""
    },
    {
        "name": "열린성모이비인후과의원",
        "hurl": "",
        "lat": 37.5366055081,
        "lon": 127.133117181,
        "highblood": "",
        "lungCa": "",
        "stomachCa": "",
        "liverCa": "",
        "bowelCa": "",
        "breastCa": "",
        "cesarean": "",
        "antibiotics": 4,
        "injection": 3,
        "diabetes": "",
        "asthma": "",
        "dialysis": ""
    },
    {
        "name": "영림내과의원",
        "hurl": "",
        "lat": 37.5416472221,
        "lon": 127.130134394,
        "highblood": "양호",
        "lungCa": "",
        "stomachCa": "",
        "liverCa": "",
        "bowelCa": "",
        "breastCa": "",
        "cesarean": "",
        "antibiotics": 5,
        "injection": 4,
        "diabetes": "",
        "asthma": "양호",
        "dialysis": ""
    },
    {
        "name": "예사랑의원",
        "hurl": "",
        "lat": 37.5504838497,
        "lon": 127.139909172,
        "highblood": "",
        "lungCa": "",
        "stomachCa": "",
        "liverCa": "",
        "bowelCa": "",
        "breastCa": "",
        "cesarean": "",
        "antibiotics": 1,
        "injection": 3,
        "diabetes": "",
        "asthma": "",
        "dialysis": ""
    },
    {
        "name": "예성정안과의원",
        "hurl": "",
        "lat": 37.5507486,
        "lon": 127.1274684,
        "highblood": "",
        "lungCa": "",
        "stomachCa": "",
        "liverCa": "",
        "bowelCa": "",
        "breastCa": "",
        "cesarean": "",
        "antibiotics": "",
        "injection": 3,
        "diabetes": "",
        "asthma": "",
        "dialysis": ""
    },
    {
        "name": "예은산부인과의원",
        "hurl": "",
        "lat": 37.5546797886,
        "lon": 127.15368327,
        "highblood": "",
        "lungCa": "",
        "stomachCa": "",
        "liverCa": "",
        "bowelCa": "",
        "breastCa": "",
        "cesarean": "",
        "antibiotics": "",
        "injection": 4,
        "diabetes": "",
        "asthma": "",
        "dialysis": ""
    },
    {
        "name": "예흠소아청소년과의원",
        "hurl": "",
        "lat": 37.5669946966,
        "lon": 127.176790416,
        "highblood": "양호",
        "lungCa": "",
        "stomachCa": "",
        "liverCa": "",
        "bowelCa": "",
        "breastCa": "",
        "cesarean": "",
        "antibiotics": 3,
        "injection": 2,
        "diabetes": "",
        "asthma": "",
        "dialysis": ""
    }
][
    {
        "name": "오수혁내과의원",
        "hurl": "http://www.oh-doctor.co.kr/",
        "lat": 37.5393407888,
        "lon": 127.123300715,
        "highblood": "양호",
        "lungCa": "",
        "stomachCa": "",
        "liverCa": "",
        "bowelCa": "",
        "breastCa": "",
        "cesarean": "",
        "antibiotics": 3,
        "injection": 1,
        "diabetes": "양호",
        "asthma": "",
        "dialysis": ""
    },
    {
        "name": "온누리피부과의원",
        "hurl": "http://www.onnuriskin.co.kr",
        "lat": 37.5538559378,
        "lon": 127.143944358,
        "highblood": "",
        "lungCa": "",
        "stomachCa": "",
        "liverCa": "",
        "bowelCa": "",
        "breastCa": "",
        "cesarean": "",
        "antibiotics": "",
        "injection": 2,
        "diabetes": "",
        "asthma": "",
        "dialysis": ""
    },
    {
        "name": "온맘정신건강의학과의원",
        "hurl": "",
        "lat": 37.5500463308,
        "lon": 127.14409999,
        "highblood": "",
        "lungCa": "",
        "stomachCa": "",
        "liverCa": "",
        "bowelCa": "",
        "breastCa": "",
        "cesarean": "",
        "antibiotics": "",
        "injection": "",
        "diabetes": "",
        "asthma": "",
        "dialysis": ""
    },
    {
        "name": "용아의원",
        "hurl": "",
        "lat": 37.5506479692,
        "lon": 127.14428674,
        "highblood": "",
        "lungCa": "",
        "stomachCa": "",
        "liverCa": "",
        "bowelCa": "",
        "breastCa": "",
        "cesarean": "",
        "antibiotics": 5,
        "injection": 5,
        "diabetes": "",
        "asthma": "",
        "dialysis": ""
    },
    {
        "name": "우리가정의원",
        "hurl": "",
        "lat": 37.5346939797,
        "lon": 127.127868524,
        "highblood": "",
        "lungCa": "",
        "stomachCa": "",
        "liverCa": "",
        "bowelCa": "",
        "breastCa": "",
        "cesarean": "",
        "antibiotics": "",
        "injection": 4,
        "diabetes": "",
        "asthma": "",
        "dialysis": ""
    },
    {
        "name": "우리신경외과의원",
        "hurl": "http://www.woorins24.com/",
        "lat": 37.5419422446,
        "lon": 127.130592044,
        "highblood": "",
        "lungCa": "",
        "stomachCa": "",
        "liverCa": "",
        "bowelCa": "",
        "breastCa": "",
        "cesarean": "",
        "antibiotics": "",
        "injection": 3,
        "diabetes": "양호",
        "asthma": "",
        "dialysis": ""
    },
    {
        "name": "우리편한내과의원",
        "hurl": "",
        "lat": 37.5471496687,
        "lon": 127.134118164,
        "highblood": "",
        "lungCa": "",
        "stomachCa": "",
        "liverCa": "",
        "bowelCa": "",
        "breastCa": "",
        "cesarean": "",
        "antibiotics": 3,
        "injection": 5,
        "diabetes": "",
        "asthma": "",
        "dialysis": ""
    },
    {
        "name": "우정정형외과의원",
        "hurl": "",
        "lat": 37.56463092,
        "lon": 127.174072867,
        "highblood": "",
        "lungCa": "",
        "stomachCa": "",
        "liverCa": "",
        "bowelCa": "",
        "breastCa": "",
        "cesarean": "",
        "antibiotics": "",
        "injection": 5,
        "diabetes": "",
        "asthma": "",
        "dialysis": ""
    },
    {
        "name": "우정희산부인과의원",
        "hurl": "",
        "lat": 37.5381085546,
        "lon": 127.12639439,
        "highblood": "",
        "lungCa": "",
        "stomachCa": "",
        "liverCa": "",
        "bowelCa": "",
        "breastCa": "",
        "cesarean": "",
        "antibiotics": "",
        "injection": 2,
        "diabetes": "",
        "asthma": "",
        "dialysis": ""
    },
    {
        "name": "원문섭피부과의원",
        "hurl": "",
        "lat": 37.5533513916,
        "lon": 127.143934334,
        "highblood": "",
        "lungCa": "",
        "stomachCa": "",
        "liverCa": "",
        "bowelCa": "",
        "breastCa": "",
        "cesarean": "",
        "antibiotics": "",
        "injection": 3,
        "diabetes": "",
        "asthma": "",
        "dialysis": ""
    }
][
    {
        "name": "웰비뇨기과의원",
        "hurl": "http://www.welluro.co.kr",
        "lat": 37.5500463308,
        "lon": 127.14409999,
        "highblood": "",
        "lungCa": "",
        "stomachCa": "",
        "liverCa": "",
        "bowelCa": "",
        "breastCa": "",
        "cesarean": "",
        "antibiotics": "",
        "injection": 3,
        "diabetes": "",
        "asthma": "",
        "dialysis": ""
    },
    {
        "name": "웰정형외과의원",
        "hurl": "",
        "lat": 37.5532980221,
        "lon": 127.154784972,
        "highblood": "",
        "lungCa": "",
        "stomachCa": "",
        "liverCa": "",
        "bowelCa": "",
        "breastCa": "",
        "cesarean": "",
        "antibiotics": "",
        "injection": 4,
        "diabetes": "",
        "asthma": "",
        "dialysis": ""
    },
    {
        "name": "위드소아청소년과의원",
        "hurl": "",
        "lat": 37.5469872321,
        "lon": 127.134344194,
        "highblood": "",
        "lungCa": "",
        "stomachCa": "",
        "liverCa": "",
        "bowelCa": "",
        "breastCa": "",
        "cesarean": "",
        "antibiotics": 1,
        "injection": 1,
        "diabetes": "",
        "asthma": "",
        "dialysis": ""
    },
    {
        "name": "위드피부과의원",
        "hurl": "http://www.withderma.co.kr/",
        "lat": 37.5552514067,
        "lon": 127.140348142,
        "highblood": "",
        "lungCa": "",
        "stomachCa": "",
        "liverCa": "",
        "bowelCa": "",
        "breastCa": "",
        "cesarean": "",
        "antibiotics": "",
        "injection": 3,
        "diabetes": "",
        "asthma": "",
        "dialysis": ""
    },
    {
        "name": "위앤장참사랑내과의원",
        "hurl": "",
        "lat": 37.5350447137,
        "lon": 127.136504154,
        "highblood": "양호",
        "lungCa": "",
        "stomachCa": "",
        "liverCa": "",
        "bowelCa": "",
        "breastCa": "",
        "cesarean": "",
        "antibiotics": 1,
        "injection": 3,
        "diabetes": "양호",
        "asthma": "",
        "dialysis": ""
    },
    {
        "name": "유나산부인과의원",
        "hurl": "",
        "lat": 37.5376479682,
        "lon": 127.125714735,
        "highblood": "",
        "lungCa": "",
        "stomachCa": "",
        "liverCa": "",
        "bowelCa": "",
        "breastCa": "",
        "cesarean": "",
        "antibiotics": "",
        "injection": 2,
        "diabetes": "",
        "asthma": "",
        "dialysis": ""
    },
    {
        "name": "유미안외과의원",
        "hurl": "http://umian.net",
        "lat": 37.5353814932,
        "lon": 127.135106321,
        "highblood": "",
        "lungCa": "",
        "stomachCa": "",
        "liverCa": "",
        "bowelCa": "",
        "breastCa": "",
        "cesarean": "",
        "antibiotics": "",
        "injection": 1,
        "diabetes": "",
        "asthma": "",
        "dialysis": ""
    },
    {
        "name": "유스타의원",
        "hurl": "",
        "lat": 37.551546419,
        "lon": 127.127725295,
        "highblood": "",
        "lungCa": "",
        "stomachCa": "",
        "liverCa": "",
        "bowelCa": "",
        "breastCa": "",
        "cesarean": "",
        "antibiotics": "",
        "injection": 2,
        "diabetes": "",
        "asthma": "",
        "dialysis": ""
    },
    {
        "name": "유앤장이비인후과의원",
        "hurl": "",
        "lat": 37.5393102816,
        "lon": 127.140906632,
        "highblood": "",
        "lungCa": "",
        "stomachCa": "",
        "liverCa": "",
        "bowelCa": "",
        "breastCa": "",
        "cesarean": "",
        "antibiotics": 1,
        "injection": 2,
        "diabetes": "",
        "asthma": "",
        "dialysis": ""
    },
    {
        "name": "윤앤윤이비인후과의원",
        "hurl": "",
        "lat": 37.551016834,
        "lon": 127.127538798,
        "highblood": "",
        "lungCa": "",
        "stomachCa": "",
        "liverCa": "",
        "bowelCa": "",
        "breastCa": "",
        "cesarean": "",
        "antibiotics": 3,
        "injection": 1,
        "diabetes": "",
        "asthma": "",
        "dialysis": ""
    }
][
    {
        "name": "으샤신경외과의원",
        "hurl": "",
        "lat": 37.53857906,
        "lon": 127.14057939,
        "highblood": "",
        "lungCa": "",
        "stomachCa": "",
        "liverCa": "",
        "bowelCa": "",
        "breastCa": "",
        "cesarean": "",
        "antibiotics": "",
        "injection": 2,
        "diabetes": "",
        "asthma": "",
        "dialysis": ""
    },
    {
        "name": "의료법인열린의료재단강동열린의원",
        "hurl": "",
        "lat": 37.5352473121,
        "lon": 127.132662195,
        "highblood": "",
        "lungCa": "",
        "stomachCa": "",
        "liverCa": "",
        "bowelCa": "",
        "breastCa": "",
        "cesarean": "",
        "antibiotics": 1,
        "injection": 2,
        "diabetes": "",
        "asthma": "",
        "dialysis": 2
    },
    {
        "name": "이경원정형외과의원",
        "hurl": "",
        "lat": 37.5268837217,
        "lon": 127.134697301,
        "highblood": "",
        "lungCa": "",
        "stomachCa": "",
        "liverCa": "",
        "bowelCa": "",
        "breastCa": "",
        "cesarean": "",
        "antibiotics": "",
        "injection": 4,
        "diabetes": "",
        "asthma": "",
        "dialysis": ""
    },
    {
        "name": "이남내과의원",
        "hurl": "",
        "lat": 37.5261382791,
        "lon": 127.124301668,
        "highblood": "",
        "lungCa": "",
        "stomachCa": "",
        "liverCa": "",
        "bowelCa": "",
        "breastCa": "",
        "cesarean": "",
        "antibiotics": 5,
        "injection": 3,
        "diabetes": "양호",
        "asthma": "양호",
        "dialysis": ""
    },
    {
        "name": "이내과의원",
        "hurl": "",
        "lat": 37.5406757313,
        "lon": 127.144276573,
        "highblood": "양호",
        "lungCa": "",
        "stomachCa": "",
        "liverCa": "",
        "bowelCa": "",
        "breastCa": "",
        "cesarean": "",
        "antibiotics": 2,
        "injection": 5,
        "diabetes": "양호",
        "asthma": "",
        "dialysis": ""
    },
    {
        "name": "이레안과의원",
        "hurl": "",
        "lat": 37.5416472221,
        "lon": 127.130134394,
        "highblood": "",
        "lungCa": "",
        "stomachCa": "",
        "liverCa": "",
        "bowelCa": "",
        "breastCa": "",
        "cesarean": "",
        "antibiotics": "",
        "injection": 1,
        "diabetes": "",
        "asthma": "",
        "dialysis": ""
    },
    {
        "name": "이레정형외과의원",
        "hurl": "",
        "lat": 37.5490045156,
        "lon": 127.155663295,
        "highblood": "",
        "lungCa": "",
        "stomachCa": "",
        "liverCa": "",
        "bowelCa": "",
        "breastCa": "",
        "cesarean": "",
        "antibiotics": 1,
        "injection": 3,
        "diabetes": "",
        "asthma": "",
        "dialysis": ""
    },