[
    {
        "name": "희명병원",
        "hurl": "http://www.hopehp.co.kr",
        "lat": 37.4556706346,
        "lon": 126.900562519,
        "highblood": 0,
        "lungCa": 0,
        "stomachCa": 0,
        "liverCa": 0,
        "bowelCa": 0,
        "breastCa": 0,
        "cesarean": 0,
        "antibiotics": 1,
        "injection": 4,
        "diabetes": 0,
        "asthma": 0,
        "dialysis": 2
    },
    {
        "name": "뉴연세여성병원",
        "hurl": "http://www.newyonsei.kr",
        "lat": 37.4552124018,
        "lon": 126.899948285,
        "highblood": 0,
        "lungCa": 0,
        "stomachCa": 0,
        "liverCa": 0,
        "bowelCa": 0,
        "breastCa": 0,
        "cesarean": 5,
        "antibiotics": 0,
        "injection": 2,
        "diabetes": 0,
        "asthma": 0,
        "dialysis": 0
    },
    {
        "name": "성지병원",
        "hurl": "",
        "lat": 37.4765962048,
        "lon": 126.892878763,
        "highblood": 0,
        "lungCa": 0,
        "stomachCa": 0,
        "liverCa": 0,
        "bowelCa": 0,
        "breastCa": 0,
        "cesarean": 0,
        "antibiotics": 0,
        "injection": 1,
        "diabetes": 0,
        "asthma": 0,
        "dialysis": 0
    },
    {
        "name": "금천수요양병원",
        "hurl": "http://geumcheon.koreasu.com",
        "lat": 37.4800315493,
        "lon": 126.906431951,
        "highblood": 0,
        "lungCa": 0,
        "stomachCa": 0,
        "liverCa": 0,
        "bowelCa": 0,
        "breastCa": 0,
        "cesarean": 0,
        "antibiotics": 0,
        "injection": 0,
        "diabetes": 0,
        "asthma": 0,
        "dialysis": 0
    },
    {
        "name": "녹십자요양병원",
        "hurl": "http://www.greencrosshos.com",
        "lat": 37.4519639,
        "lon": 126.9021454,
        "highblood": 0,
        "lungCa": 0,
        "stomachCa": 0,
        "liverCa": 0,
        "bowelCa": 0,
        "breastCa": 0,
        "cesarean": 0,
        "antibiotics": 0,
        "injection": 0,
        "diabetes": 0,
        "asthma": 0,
        "dialysis": 0
    },
    {
        "name": "서울예수요양병원",
        "hurl": "http://www.homemedi.co.kr/seoulyesu",
        "lat": 37.4790710792,
        "lon": 126.904190077,
        "highblood": 0,
        "lungCa": 0,
        "stomachCa": 0,
        "liverCa": 0,
        "bowelCa": 0,
        "breastCa": 0,
        "cesarean": 0,
        "antibiotics": 0,
        "injection": 0,
        "diabetes": 0,
        "asthma": 0,
        "dialysis": 0
    }
][
    {
        "name": "성신고려요양병원",
        "hurl": "",
        "lat": 37.4667510516,
        "lon": 126.894081987,
        "highblood": 0,
        "lungCa": 0,
        "stomachCa": 0,
        "liverCa": 0,
        "bowelCa": 0,
        "breastCa": 0,
        "cesarean": 0,
        "antibiotics": 0,
        "injection": 0,
        "diabetes": 0,
        "asthma": 0,
        "dialysis": 0
    },
    {
        "name": "(재)이랜드재단 이랜드의원",
        "hurl": "http://www.elandclinic.com",
        "lat": 37.482024,
        "lon": 126.881692,
        "highblood": 0,
        "lungCa": 0,
        "stomachCa": 0,
        "liverCa": 0,
        "bowelCa": 0,
        "breastCa": 0,
        "cesarean": 0,
        "antibiotics": 1,
        "injection": 3,
        "diabetes": 0,
        "asthma": 0,
        "dialysis": 0
    },
    {
        "name": "(재)한국산업의학연구소부설그린의원",
        "hurl": "",
        "lat": 37.475937,
        "lon": 126.8980579,
        "highblood": 0,
        "lungCa": 0,
        "stomachCa": 0,
        "liverCa": 0,
        "bowelCa": 0,
        "breastCa": 0,
        "cesarean": 0,
        "antibiotics": 4,
        "injection": 4,
        "diabetes": 0,
        "asthma": 0,
        "dialysis": 0
    },
    {
        "name": "가산안과의원",
        "hurl": "",
        "lat": 37.4799670597,
        "lon": 126.882635295,
        "highblood": 0,
        "lungCa": 0,
        "stomachCa": 0,
        "liverCa": 0,
        "bowelCa": 0,
        "breastCa": 0,
        "cesarean": 0,
        "antibiotics": 0,
        "injection": 1,
        "diabetes": 0,
        "asthma": 0,
        "dialysis": 0
    }
][
    {
        "name": "강피부과의원",
        "hurl": "",
        "lat": 37.4542259579,
        "lon": 126.90121543,
        "highblood": 0,
        "lungCa": 0,
        "stomachCa": 0,
        "liverCa": 0,
        "bowelCa": 0,
        "breastCa": 0,
        "cesarean": 0,
        "antibiotics": 0,
        "injection": 4,
        "diabetes": 0,
        "asthma": 0,
        "dialysis": 0
    },
    {
        "name": "고은나라의원",
        "hurl": "",
        "lat": 37.4530442449,
        "lon": 126.901714267,
        "highblood": 0,
        "lungCa": 0,
        "stomachCa": 0,
        "liverCa": 0,
        "bowelCa": 0,
        "breastCa": 0,
        "cesarean": 0,
        "antibiotics": 0,
        "injection": 4,
        "diabetes": 0,
        "asthma": 0,
        "dialysis": 0
    },
    {
        "name": "금천수의원",
        "hurl": "",
        "lat": 37.4778163128,
        "lon": 126.903499776,
        "highblood": 0,
        "lungCa": 0,
        "stomachCa": 0,
        "liverCa": 0,
        "bowelCa": 0,
        "breastCa": 0,
        "cesarean": 0,
        "antibiotics": 0,
        "injection": 2,
        "diabetes": 0,
        "asthma": 0,
        "dialysis": 0
    },
    {
        "name": "금천연세내과의원",
        "hurl": "",
        "lat": 37.4658500464,
        "lon": 126.902461643,
        "highblood": "양호",
        "lungCa": 0,
        "stomachCa": 0,
        "liverCa": 0,
        "bowelCa": 0,
        "breastCa": 0,
        "cesarean": 0,
        "antibiotics": 5,
        "injection": 2,
        "diabetes": 0,
        "asthma": "양호",
        "dialysis": 0
    }
][
    {
        "name": "금천연세정형외과의원",
        "hurl": "",
        "lat": 37.450412795,
        "lon": 126.910153141,
        "highblood": 0,
        "lungCa": 0,
        "stomachCa": 0,
        "liverCa": 0,
        "bowelCa": 0,
        "breastCa": 0,
        "cesarean": 0,
        "antibiotics": 0,
        "injection": 5,
        "diabetes": 0,
        "asthma": 0,
        "dialysis": 0
    },
    {
        "name": "김내과의원",
        "hurl": "",
        "lat": 37.4628169922,
        "lon": 126.904360026,
        "highblood": 0,
        "lungCa": 0,
        "stomachCa": 0,
        "liverCa": 0,
        "bowelCa": 0,
        "breastCa": 0,
        "cesarean": 0,
        "antibiotics": 1,
        "injection": 4,
        "diabetes": "양호",
        "asthma": 0,
        "dialysis": 0
    },
    {
        "name": "김성진정형외과의원",
        "hurl": "",
        "lat": 37.4600861,
        "lon": 126.9050951,
        "highblood": "양호",
        "lungCa": 0,
        "stomachCa": 0,
        "liverCa": 0,
        "bowelCa": 0,
        "breastCa": 0,
        "cesarean": 0,
        "antibiotics": 0,
        "injection": 3,
        "diabetes": 0,
        "asthma": 0,
        "dialysis": 0
    },
    {
        "name": "김승국소아과의원",
        "hurl": "",
        "lat": 37.4512550516,
        "lon": 126.90872813,
        "highblood": 0,
        "lungCa": 0,
        "stomachCa": 0,
        "liverCa": 0,
        "bowelCa": 0,
        "breastCa": 0,
        "cesarean": 0,
        "antibiotics": 3,
        "injection": 5,
        "diabetes": 0,
        "asthma": 0,
        "dialysis": 0
    },
    {
        "name": "김용호소아청소년과의원",
        "hurl": "",
        "lat": 37.4597070206,
        "lon": 126.904757327,
        "highblood": 0,
        "lungCa": 0,
        "stomachCa": 0,
        "liverCa": 0,
        "bowelCa": 0,
        "breastCa": 0,
        "cesarean": 0,
        "antibiotics": 1,
        "injection": 5,
        "diabetes": 0,
        "asthma": 0,
        "dialysis": 0
    },
    {
        "name": "김재은의원",
        "hurl": "",
        "lat": 37.4422772598,
        "lon": 126.904065247,
        "highblood": "양호",
        "lungCa": 0,
        "stomachCa": 0,
        "liverCa": 0,
        "bowelCa": 0,
        "breastCa": 0,
        "cesarean": 0,
        "antibiotics": 0,
        "injection": 3,
        "diabetes": 0,
        "asthma": 0,
        "dialysis": 0
    }
][
    {
        "name": "김현우산부인과의원",
        "hurl": "",
        "lat": 37.4709968929,
        "lon": 126.902794093,
        "highblood": 0,
        "lungCa": 0,
        "stomachCa": 0,
        "liverCa": 0,
        "bowelCa": 0,
        "breastCa": 0,
        "cesarean": 0,
        "antibiotics": 0,
        "injection": 3,
        "diabetes": 0,
        "asthma": 0,
        "dialysis": 0
    },
    {
        "name": "나래정신건강의학과의원",
        "hurl": "",
        "lat": 37.4530461,
        "lon": 126.9017609,
        "highblood": 0,
        "lungCa": 0,
        "stomachCa": 0,
        "liverCa": 0,
        "bowelCa": 0,
        "breastCa": 0,
        "cesarean": 0,
        "antibiotics": 0,
        "injection": 0,
        "diabetes": 0,
        "asthma": 0,
        "dialysis": 0
    },
    {
        "name": "남문내과의원",
        "hurl": "",
        "lat": 37.4723084305,
        "lon": 126.902389945,
        "highblood": "양호",
        "lungCa": 0,
        "stomachCa": 0,
        "liverCa": 0,
        "bowelCa": 0,
        "breastCa": 0,
        "cesarean": 0,
        "antibiotics": 1,
        "injection": 3,
        "diabetes": "양호",
        "asthma": "양호",
        "dialysis": 0
    },
    {
        "name": "네오의원",
        "hurl": "http://www.neoclinic.kr/",
        "lat": 37.4698102865,
        "lon": 126.897491602,
        "highblood": 0,
        "lungCa": 0,
        "stomachCa": 0,
        "liverCa": 0,
        "bowelCa": 0,
        "breastCa": 0,
        "cesarean": 0,
        "antibiotics": 0,
        "injection": 4,
        "diabetes": 0,
        "asthma": 0,
        "dialysis": 0
    },
    {
        "name": "뉴연세의원",
        "hurl": "",
        "lat": 37.4552124018,
        "lon": 126.899948285,
        "highblood": "양호",
        "lungCa": 0,
        "stomachCa": 0,
        "liverCa": 0,
        "bowelCa": 0,
        "breastCa": 0,
        "cesarean": 0,
        "antibiotics": 1,
        "injection": 4,
        "diabetes": 0,
        "asthma": 0,
        "dialysis": 0
    },
    {
        "name": "다나은마취통증의학과의원",
        "hurl": "",
        "lat": 37.4692769,
        "lon": 126.8970763,
        "highblood": 0,
        "lungCa": 0,
        "stomachCa": 0,
        "liverCa": 0,
        "bowelCa": 0,
        "breastCa": 0,
        "cesarean": 0,
        "antibiotics": 0,
        "injection": 2,
        "diabetes": 0,
        "asthma": 0,
        "dialysis": 0
    },
    {
        "name": "다나이비인후과의원",
        "hurl": "",
        "lat": 37.4814387278,
        "lon": 126.883872148,
        "highblood": 0,
        "lungCa": 0,
        "stomachCa": 0,
        "liverCa": 0,
        "bowelCa": 0,
        "breastCa": 0,
        "cesarean": 0,
        "antibiotics": 5,
        "injection": 5,
        "diabetes": 0,
        "asthma": 0,
        "dialysis": 0
    }
][
    {
        "name": "명내과의원",
        "hurl": "",
        "lat": 37.4595019717,
        "lon": 126.905232307,
        "highblood": 0,
        "lungCa": 0,
        "stomachCa": 0,
        "liverCa": 0,
        "bowelCa": 0,
        "breastCa": 0,
        "cesarean": 0,
        "antibiotics": 2,
        "injection": 4,
        "diabetes": "양호",
        "asthma": 0,
        "dialysis": 0
    },
    {
        "name": "명이비인후과의원",
        "hurl": "",
        "lat": 37.4796948184,
        "lon": 126.904487757,
        "highblood": 0,
        "lungCa": 0,
        "stomachCa": 0,
        "liverCa": 0,
        "bowelCa": 0,
        "breastCa": 0,
        "cesarean": 0,
        "antibiotics": 4,
        "injection": 3,
        "diabetes": 0,
        "asthma": 0,
        "dialysis": 0
    },
    {
        "name": "모세안과의원",
        "hurl": "",
        "lat": 37.4698102865,
        "lon": 126.897491602,
        "highblood": 0,
        "lungCa": 0,
        "stomachCa": 0,
        "liverCa": 0,
        "bowelCa": 0,
        "breastCa": 0,
        "cesarean": 0,
        "antibiotics": 0,
        "injection": 2,
        "diabetes": 0,
        "asthma": 0,
        "dialysis": 0
    }
][
    {
        "name": "문이비인후과의원",
        "hurl": "",
        "lat": 37.4759376707,
        "lon": 126.898089199,
        "highblood": 0,
        "lungCa": 0,
        "stomachCa": 0,
        "liverCa": 0,
        "bowelCa": 0,
        "breastCa": 0,
        "cesarean": 0,
        "antibiotics": 1,
        "injection": 2,
        "diabetes": 0,
        "asthma": 0,
        "dialysis": 0
    },
    {
        "name": "미래산부인과의원",
        "hurl": "",
        "lat": 37.4522266,
        "lon": 126.9018961,
        "highblood": 0,
        "lungCa": 0,
        "stomachCa": 0,
        "liverCa": 0,
        "bowelCa": 0,
        "breastCa": 0,
        "cesarean": 3,
        "antibiotics": 0,
        "injection": 5,
        "diabetes": 0,
        "asthma": 0,
        "dialysis": 0
    },
    {
        "name": "미래이비인후과의원",
        "hurl": "",
        "lat": 37.4693898,
        "lon": 126.8970263,
        "highblood": 0,
        "lungCa": 0,
        "stomachCa": 0,
        "liverCa": 0,
        "bowelCa": 0,
        "breastCa": 0,
        "cesarean": 0,
        "antibiotics": 4,
        "injection": 3,
        "diabetes": 0,
        "asthma": 0,
        "dialysis": 0
    },
    {
        "name": "밝은내일내과의원",
        "hurl": "",
        "lat": 37.454427811,
        "lon": 126.90124681,
        "highblood": 0,
        "lungCa": 0,
        "stomachCa": 0,
        "liverCa": 0,
        "bowelCa": 0,
        "breastCa": 0,
        "cesarean": 0,
        "antibiotics": 5,
        "injection": 3,
        "diabetes": "양호",
        "asthma": 0,
        "dialysis": 0
    },
    {
        "name": "백산정신건강의학과의원",
        "hurl": "http://www.temenos.co.kr/",
        "lat": 37.4583115472,
        "lon": 126.899550823,
        "highblood": 0,
        "lungCa": 0,
        "stomachCa": 0,
        "liverCa": 0,
        "bowelCa": 0,
        "breastCa": 0,
        "cesarean": 0,
        "antibiotics": 0,
        "injection": 0,
        "diabetes": 0,
        "asthma": 0,
        "dialysis": 0
    },
    {
        "name": "빈센트의원",
        "hurl": "http://www.vincentclinic.com/",
        "lat": 37.4553899204,
        "lon": 126.888876378,
        "highblood": "양호",
        "lungCa": 0,
        "stomachCa": 0,
        "liverCa": 0,
        "bowelCa": 0,
        "breastCa": 0,
        "cesarean": 0,
        "antibiotics": 2,
        "injection": 3,
        "diabetes": "양호",
        "asthma": 0,
        "dialysis": 0
    }
][
    {
        "name": "삼성서울정형외과의원",
        "hurl": "",
        "lat": 37.4530442449,
        "lon": 126.901714267,
        "highblood": 0,
        "lungCa": 0,
        "stomachCa": 0,
        "liverCa": 0,
        "bowelCa": 0,
        "breastCa": 0,
        "cesarean": 0,
        "antibiotics": 0,
        "injection": 2,
        "diabetes": 0,
        "asthma": 0,
        "dialysis": 0
    },
    {
        "name": "삼성정형외과의원",
        "hurl": "",
        "lat": 37.4726228104,
        "lon": 126.903397927,
        "highblood": 0,
        "lungCa": 0,
        "stomachCa": 0,
        "liverCa": 0,
        "bowelCa": 0,
        "breastCa": 0,
        "cesarean": 0,
        "antibiotics": 2,
        "injection": 4,
        "diabetes": "양호",
        "asthma": 0,
        "dialysis": 0
    },
    {
        "name": "서울메디이비인후과의원",
        "hurl": "",
        "lat": 37.4504411169,
        "lon": 126.909484059,
        "highblood": 0,
        "lungCa": 0,
        "stomachCa": 0,
        "liverCa": 0,
        "bowelCa": 0,
        "breastCa": 0,
        "cesarean": 0,
        "antibiotics": 1,
        "injection": 2,
        "diabetes": 0,
        "asthma": 0,
        "dialysis": 0
    },
    {
        "name": "서울메디피아의원",
        "hurl": "",
        "lat": 37.478742,
        "lon": 126.8818645,
        "highblood": 0,
        "lungCa": 0,
        "stomachCa": 0,
        "liverCa": 0,
        "bowelCa": 0,
        "breastCa": 0,
        "cesarean": 0,
        "antibiotics": 5,
        "injection": 1,
        "diabetes": 0,
        "asthma": 0,
        "dialysis": 0
    }
][
    {
        "name": "서울에스마취통증의학과의원",
        "hurl": "",
        "lat": 37.4798515,
        "lon": "126.8825960",
        "highblood": 0,
        "lungCa": 0,
        "stomachCa": 0,
        "liverCa": 0,
        "bowelCa": 0,
        "breastCa": 0,
        "cesarean": 0,
        "antibiotics": 0,
        "injection": 3,
        "diabetes": 0,
        "asthma": 0,
        "dialysis": 0
    },
    {
        "name": "서울으뜸정형외과의원",
        "hurl": "",
        "lat": 37.4658500464,
        "lon": 126.902461643,
        "highblood": 0,
        "lungCa": 0,
        "stomachCa": 0,
        "liverCa": 0,
        "bowelCa": 0,
        "breastCa": 0,
        "cesarean": 0,
        "antibiotics": 0,
        "injection": 5,
        "diabetes": 0,
        "asthma": 0,
        "dialysis": 0
    },
    {
        "name": "성메디칼산부인과의원",
        "hurl": "",
        "lat": 37.4585898797,
        "lon": 126.904898898,
        "highblood": 0,
        "lungCa": 0,
        "stomachCa": 0,
        "liverCa": 0,
        "bowelCa": 0,
        "breastCa": 0,
        "cesarean": 0,
        "antibiotics": 0,
        "injection": 5,
        "diabetes": 0,
        "asthma": 0,
        "dialysis": 0
    },
    {
        "name": "성모정소아청소년과의원",
        "hurl": "",
        "lat": 37.4515719246,
        "lon": 126.908361571,
        "highblood": 0,
        "lungCa": 0,
        "stomachCa": 0,
        "liverCa": 0,
        "bowelCa": 0,
        "breastCa": 0,
        "cesarean": 0,
        "antibiotics": 1,
        "injection": 1,
        "diabetes": 0,
        "asthma": 0,
        "dialysis": 0
    }
][
    {
        "name": "성심의원",
        "hurl": "",
        "lat": 37.4726008286,
        "lon": 126.898668015,
        "highblood": 0,
        "lungCa": 0,
        "stomachCa": 0,
        "liverCa": 0,
        "bowelCa": 0,
        "breastCa": 0,
        "cesarean": 0,
        "antibiotics": 3,
        "injection": 3,
        "diabetes": "양호",
        "asthma": "양호",
        "dialysis": 0
    },
    {
        "name": "세란가정의원",
        "hurl": "",
        "lat": 37.4659239133,
        "lon": 126.904649967,
        "highblood": "양호",
        "lungCa": 0,
        "stomachCa": 0,
        "liverCa": 0,
        "bowelCa": 0,
        "breastCa": 0,
        "cesarean": 0,
        "antibiotics": 0,
        "injection": 4,
        "diabetes": 0,
        "asthma": 0,
        "dialysis": 0
    },
    {
        "name": "센트럴안과의원",
        "hurl": "",
        "lat": 37.452701196,
        "lon": 126.900919067,
        "highblood": 0,
        "lungCa": 0,
        "stomachCa": 0,
        "liverCa": 0,
        "bowelCa": 0,
        "breastCa": 0,
        "cesarean": 0,
        "antibiotics": 0,
        "injection": 2,
        "diabetes": 0,
        "asthma": 0,
        "dialysis": 0
    },
    {
        "name": "시흥우리들소아청소년과의원",
        "hurl": "",
        "lat": 37.4530461,
        "lon": 126.9017609,
        "highblood": 0,
        "lungCa": 0,
        "stomachCa": 0,
        "liverCa": 0,
        "bowelCa": 0,
        "breastCa": 0,
        "cesarean": 0,
        "antibiotics": 1,
        "injection": 1,
        "diabetes": 0,
        "asthma": 0,
        "dialysis": 0
    }
][
    {
        "name": "연세우리내과의원",
        "hurl": "",
        "lat": 37.4770473724,
        "lon": 126.882214774,
        "highblood": 0,
        "lungCa": 0,
        "stomachCa": 0,
        "liverCa": 0,
        "bowelCa": 0,
        "breastCa": 0,
        "cesarean": 0,
        "antibiotics": 0,
        "injection": 1,
        "diabetes": 0,
        "asthma": 0,
        "dialysis": 0
    },
    {
        "name": "연세정형외과의원",
        "hurl": "",
        "lat": 37.4596061001,
        "lon": 126.904748413,
        "highblood": 0,
        "lungCa": 0,
        "stomachCa": 0,
        "liverCa": 0,
        "bowelCa": 0,
        "breastCa": 0,
        "cesarean": 0,
        "antibiotics": 0,
        "injection": 4,
        "diabetes": 0,
        "asthma": 0,
        "dialysis": 0
    },
    {
        "name": "연세조내과의원",
        "hurl": "",
        "lat": 37.4537504802,
        "lon": 126.90152347,
        "highblood": 0,
        "lungCa": 0,
        "stomachCa": 0,
        "liverCa": 0,
        "bowelCa": 0,
        "breastCa": 0,
        "cesarean": 0,
        "antibiotics": 5,
        "injection": 4,
        "diabetes": "양호",
        "asthma": "양호",
        "dialysis": 0
    },
    {
        "name": "연세조은피부과의원",
        "hurl": "",
        "lat": 37.4595019717,
        "lon": 126.905232307,
        "highblood": 0,
        "lungCa": 0,
        "stomachCa": 0,
        "liverCa": 0,
        "bowelCa": 0,
        "breastCa": 0,
        "cesarean": 0,
        "antibiotics": 0,
        "injection": 4,
        "diabetes": 0,
        "asthma": 0,
        "dialysis": 0
    },
    {
        "name": "우리내과의원",
        "hurl": "",
        "lat": 37.4530442449,
        "lon": 126.901714267,
        "highblood": 0,
        "lungCa": 0,
        "stomachCa": 0,
        "liverCa": 0,
        "bowelCa": 0,
        "breastCa": 0,
        "cesarean": 0,
        "antibiotics": 4,
        "injection": 2,
        "diabetes": "양호",
        "asthma": 0,
        "dialysis": 0
    }
][
    {
        "name": "우리비뇨기과의원",
        "hurl": "",
        "lat": 37.4509276636,
        "lon": 126.909483473,
        "highblood": 0,
        "lungCa": 0,
        "stomachCa": 0,
        "liverCa": 0,
        "bowelCa": 0,
        "breastCa": 0,
        "cesarean": 0,
        "antibiotics": 0,
        "injection": 4,
        "diabetes": 0,
        "asthma": 0,
        "dialysis": 0
    },
    {
        "name": "우림연합의원",
        "hurl": "",
        "lat": 37.4799670597,
        "lon": 126.882635295,
        "highblood": "양호",
        "lungCa": 0,
        "stomachCa": 0,
        "liverCa": 0,
        "bowelCa": 0,
        "breastCa": 0,
        "cesarean": 0,
        "antibiotics": 3,
        "injection": 3,
        "diabetes": 0,
        "asthma": 0,
        "dialysis": 0
    },
    {
        "name": "우정이비인후과의원",
        "hurl": "",
        "lat": 37.4503440021,
        "lon": 126.914587924,
        "highblood": 0,
        "lungCa": 0,
        "stomachCa": 0,
        "liverCa": 0,
        "bowelCa": 0,
        "breastCa": 0,
        "cesarean": 0,
        "antibiotics": 1,
        "injection": 3,
        "diabetes": 0,
        "asthma": 0,
        "dialysis": 0
    },
    {
        "name": "웨일산부인과의원",
        "hurl": "",
        "lat": "37.4820240",
        "lon": "126.8816920",
        "highblood": 0,
        "lungCa": 0,
        "stomachCa": 0,
        "liverCa": 0,
        "bowelCa": 0,
        "breastCa": 0,
        "cesarean": 0,
        "antibiotics": 0,
        "injection": 2,
        "diabetes": 0,
        "asthma": 0,
        "dialysis": 0
    },
    {
        "name": "이상문소아과의원",
        "hurl": "",
        "lat": 37.4650173749,
        "lon": 126.90229543,
        "highblood": 0,
        "lungCa": 0,
        "stomachCa": 0,
        "liverCa": 0,
        "bowelCa": 0,
        "breastCa": 0,
        "cesarean": 0,
        "antibiotics": 4,
        "injection": 1,
        "diabetes": 0,
        "asthma": 0,
        "dialysis": 0
    },
    {
        "name": "이성림산부인과의원",
        "hurl": "",
        "lat": 37.4504411169,
        "lon": 126.909484059,
        "highblood": 0,
        "lungCa": 0,
        "stomachCa": 0,
        "liverCa": 0,
        "bowelCa": 0,
        "breastCa": 0,
        "cesarean": 0,
        "antibiotics": 0,
        "injection": 1,
        "diabetes": 0,
        "asthma": 0,
        "dialysis": 0
    },
    {
        "name": "이청민소아청소년과의원",
        "hurl": "",
        "lat": 37.4581314564,
        "lon": 126.899682175,
        "highblood": 0,
        "lungCa": 0,
        "stomachCa": 0,
        "liverCa": 0,
        "bowelCa": 0,
        "breastCa": 0,
        "cesarean": 0,
        "antibiotics": 1,
        "injection": 2,
        "diabetes": 0,
        "asthma": 0,
        "dialysis": 0
    }
][
    {
        "name": "임안과의원",
        "hurl": "",
        "lat": 37.4546041558,
        "lon": 126.900943682,
        "highblood": 0,
        "lungCa": 0,
        "stomachCa": 0,
        "liverCa": 0,
        "bowelCa": 0,
        "breastCa": 0,
        "cesarean": 0,
        "antibiotics": 0,
        "injection": 2,
        "diabetes": 0,
        "asthma": 0,
        "dialysis": 0
    },
    {
        "name": "전영수내과의원",
        "hurl": "",
        "lat": 37.4798395624,
        "lon": 126.905211151,
        "highblood": "양호",
        "lungCa": 0,
        "stomachCa": 0,
        "liverCa": 0,
        "bowelCa": 0,
        "breastCa": 0,
        "cesarean": 0,
        "antibiotics": 0,
        "injection": 2,
        "diabetes": 0,
        "asthma": 0,
        "dialysis": 0
    },
    {
        "name": "조내과의원",
        "hurl": "",
        "lat": 37.4678857406,
        "lon": 126.9017491,
        "highblood": "양호",
        "lungCa": 0,
        "stomachCa": 0,
        "liverCa": 0,
        "bowelCa": 0,
        "breastCa": 0,
        "cesarean": 0,
        "antibiotics": 1,
        "injection": 3,
        "diabetes": 0,
        "asthma": 0,
        "dialysis": 0
    },
    {
        "name": "조윤희산부인과의원",
        "hurl": "http://best.doctor.co.kr/sub/f_intro.html",
        "lat": 37.4527738887,
        "lon": 126.901651331,
        "highblood": 0,
        "lungCa": 0,
        "stomachCa": 0,
        "liverCa": 0,
        "bowelCa": 0,
        "breastCa": 0,
        "cesarean": 0,
        "antibiotics": 0,
        "injection": 5,
        "diabetes": 0,
        "asthma": 0,
        "dialysis": 0
    }
][
    {
        "name": "조은이비인후과의원",
        "hurl": "",
        "lat": 37.4649201405,
        "lon": 126.902385986,
        "highblood": 0,
        "lungCa": 0,
        "stomachCa": 0,
        "liverCa": 0,
        "bowelCa": 0,
        "breastCa": 0,
        "cesarean": 0,
        "antibiotics": 4,
        "injection": 3,
        "diabetes": 0,
        "asthma": 0,
        "dialysis": 0
    },
    {
        "name": "최명수이비인후과의원",
        "hurl": "",
        "lat": 37.4600857144,
        "lon": 126.905091414,
        "highblood": 0,
        "lungCa": 0,
        "stomachCa": 0,
        "liverCa": 0,
        "bowelCa": 0,
        "breastCa": 0,
        "cesarean": 0,
        "antibiotics": 5,
        "injection": 4,
        "diabetes": 0,
        "asthma": 0,
        "dialysis": 0
    },
    {
        "name": "큰사랑산부인과의원",
        "hurl": "",
        "lat": 37.4666925157,
        "lon": 126.893114452,
        "highblood": 0,
        "lungCa": 0,
        "stomachCa": 0,
        "liverCa": 0,
        "bowelCa": 0,
        "breastCa": 0,
        "cesarean": 0,
        "antibiotics": 0,
        "injection": 5,
        "diabetes": 0,
        "asthma": 0,
        "dialysis": 0
    },
    {
        "name": "한마음외과의원",
        "hurl": "",
        "lat": 37.4551233926,
        "lon": 126.905658274,
        "highblood": 0,
        "lungCa": 0,
        "stomachCa": 0,
        "liverCa": 0,
        "bowelCa": 0,
        "breastCa": 0,
        "cesarean": 0,
        "antibiotics": 1,
        "injection": 5,
        "diabetes": 0,
        "asthma": 0,
        "dialysis": 0
    }
][
    {
        "name": "한양내과의원",
        "hurl": "",
        "lat": 37.450448753,
        "lon": 126.910044604,
        "highblood": "양호",
        "lungCa": 0,
        "stomachCa": 0,
        "liverCa": 0,
        "bowelCa": 0,
        "breastCa": 0,
        "cesarean": 0,
        "antibiotics": 1,
        "injection": 4,
        "diabetes": "양호",
        "asthma": 0,
        "dialysis": 0
    },
    {
        "name": "한양정형외과의원",
        "hurl": "",
        "lat": 37.441347241,
        "lon": 126.903853992,
        "highblood": 0,
        "lungCa": 0,
        "stomachCa": 0,
        "liverCa": 0,
        "bowelCa": 0,
        "breastCa": 0,
        "cesarean": 0,
        "antibiotics": 0,
        "injection": 4,
        "diabetes": 0,
        "asthma": 0,
        "dialysis": 0
    },
    {
        "name": "해맑음마취통증의학과의원",
        "hurl": "",
        "lat": 37.478742,
        "lon": 126.8818645,
        "highblood": 0,
        "lungCa": 0,
        "stomachCa": 0,
        "liverCa": 0,
        "bowelCa": 0,
        "breastCa": 0,
        "cesarean": 0,
        "antibiotics": 0,
        "injection": 2,
        "diabetes": 0,
        "asthma": 0,
        "dialysis": 0
    },
    {
        "name": "행복한가정의원",
        "hurl": "",
        "lat": 37.4761062979,
        "lon": 126.893146268,
        "highblood": "양호",
        "lungCa": 0,
        "stomachCa": 0,
        "liverCa": 0,
        "bowelCa": 0,
        "breastCa": 0,
        "cesarean": 0,
        "antibiotics": 2,
        "injection": 2,
        "diabetes": 0,
        "asthma": 0,
        "dialysis": 0
    },
    {
        "name": "홀인원비뇨기과의원",
        "hurl": "",
        "lat": 37.4799670597,
        "lon": 126.882635295,
        "highblood": 0,
        "lungCa": 0,
        "stomachCa": 0,
        "liverCa": 0,
        "bowelCa": 0,
        "breastCa": 0,
        "cesarean": 0,
        "antibiotics": 0,
        "injection": 4,
        "diabetes": 0,
        "asthma": 0,
        "dialysis": 0
    },
    {
        "name": "홀인원의원",
        "hurl": "http://www.manpride.net",
        "lat": 37.481444,
        "lon": 126.8838858,
        "highblood": 0,
        "lungCa": 0,
        "stomachCa": 0,
        "liverCa": 0,
        "bowelCa": 0,
        "breastCa": 0,
        "cesarean": 0,
        "antibiotics": 0,
        "injection": 3,
        "diabetes": 0,
        "asthma": 0,
        "dialysis": 0
    }
]