[
    {
        "name": "강북우리들병원",
        "hurl": "",
        "lat": 37.6425449725,
        "lon": 127.022633879,
        "highblood": 0,
        "lungCa": 0,
        "stomachCa": 0,
        "liverCa": 0,
        "bowelCa": 0,
        "breastCa": 0,
        "cesarean": 0,
        "antibiotics": 0,
        "injection": 5,
        "diabetes": 0,
        "asthma": 0,
        "dialysis": 0
    },
    {
        "name": "국립재활원",
        "hurl": "http://www.nrc.go.kr",
        "lat": 37.6386544435,
        "lon": 127.01026493,
        "highblood": 0,
        "lungCa": 0,
        "stomachCa": 0,
        "liverCa": 0,
        "bowelCa": 0,
        "breastCa": 0,
        "cesarean": 0,
        "antibiotics": 3,
        "injection": 1,
        "diabetes": 0,
        "asthma": 0,
        "dialysis": 0
    },
    {
        "name": "서울좋은병원",
        "hurl": "",
        "lat": 37.619301672,
        "lon": 127.029287111,
        "highblood": 0,
        "lungCa": 0,
        "stomachCa": 0,
        "liverCa": 0,
        "bowelCa": 0,
        "breastCa": 0,
        "cesarean": 0,
        "antibiotics": 1,
        "injection": 4,
        "diabetes": 0,
        "asthma": 0,
        "dialysis": 0
    },
    {
        "name": "서울현대병원",
        "hurl": "http://www.seoulhyundai.co.kr/",
        "lat": 37.6402551991,
        "lon": 127.028506754,
        "highblood": 0,
        "lungCa": 0,
        "stomachCa": 0,
        "liverCa": 0,
        "bowelCa": 0,
        "breastCa": 0,
        "cesarean": 0,
        "antibiotics": 4,
        "injection": 3,
        "diabetes": 0,
        "asthma": 0,
        "dialysis": 0
    },
    {
        "name": "신일병원",
        "hurl": "",
        "lat": 37.6347750312,
        "lon": 127.021824872,
        "highblood": 0,
        "lungCa": 0,
        "stomachCa": 0,
        "liverCa": 0,
        "bowelCa": 0,
        "breastCa": 0,
        "cesarean": 0,
        "antibiotics": 1,
        "injection": 4,
        "diabetes": 0,
        "asthma": 0,
        "dialysis": 0
    }
][
    {
        "name": "정인노인전문병원",
        "hurl": "",
        "lat": 37.6413577271,
        "lon": 127.029631146,
        "highblood": 0,
        "lungCa": 0,
        "stomachCa": 0,
        "liverCa": 0,
        "bowelCa": 0,
        "breastCa": 0,
        "cesarean": 0,
        "antibiotics": 0,
        "injection": 0,
        "diabetes": 0,
        "asthma": 0,
        "dialysis": 0
    },
    {
        "name": "포근한요양병원",
        "hurl": "http://www.poghospi.com",
        "lat": 37.6322986651,
        "lon": 127.024171512,
        "highblood": 0,
        "lungCa": 0,
        "stomachCa": 0,
        "liverCa": 0,
        "bowelCa": 0,
        "breastCa": 0,
        "cesarean": 0,
        "antibiotics": 0,
        "injection": 0,
        "diabetes": 0,
        "asthma": 0,
        "dialysis": 0
    },
    {
        "name": "365항외과의원",
        "hurl": "",
        "lat": 37.6378701753,
        "lon": 127.025052511,
        "highblood": 0,
        "lungCa": 0,
        "stomachCa": 0,
        "liverCa": 0,
        "bowelCa": 0,
        "breastCa": 0,
        "cesarean": 0,
        "antibiotics": 0,
        "injection": 2,
        "diabetes": 0,
        "asthma": 0,
        "dialysis": 0
    },
    {
        "name": "강남의원",
        "hurl": "",
        "lat": 37.628243682,
        "lon": 127.039540523,
        "highblood": "양호",
        "lungCa": 0,
        "stomachCa": 0,
        "liverCa": 0,
        "bowelCa": 0,
        "breastCa": 0,
        "cesarean": 0,
        "antibiotics": 5,
        "injection": 4,
        "diabetes": "양호",
        "asthma": 0,
        "dialysis": 0
    }
][
    {
        "name": "강북삼성의원",
        "hurl": "http://www.kangbsclinic.com/",
        "lat": 37.6295501013,
        "lon": 127.017038159,
        "highblood": "양호",
        "lungCa": 0,
        "stomachCa": 0,
        "liverCa": 0,
        "bowelCa": 0,
        "breastCa": 0,
        "cesarean": 0,
        "antibiotics": 4,
        "injection": 4,
        "diabetes": "양호",
        "asthma": 0,
        "dialysis": 0
    },
    {
        "name": "강북서울의원",
        "hurl": "",
        "lat": 37.6127701935,
        "lon": 127.033479706,
        "highblood": "양호",
        "lungCa": 0,
        "stomachCa": 0,
        "liverCa": 0,
        "bowelCa": 0,
        "breastCa": 0,
        "cesarean": 0,
        "antibiotics": 1,
        "injection": 4,
        "diabetes": 0,
        "asthma": 0,
        "dialysis": 0
    },
    {
        "name": "강북연세내과의원",
        "hurl": "http://www.we88.co.kr",
        "lat": 37.6317075662,
        "lon": 127.024425088,
        "highblood": "양호",
        "lungCa": 0,
        "stomachCa": 0,
        "liverCa": 0,
        "bowelCa": 0,
        "breastCa": 0,
        "cesarean": 0,
        "antibiotics": 5,
        "injection": 3,
        "diabetes": 0,
        "asthma": 0,
        "dialysis": 0
    },
    {
        "name": "강북연세이비인후과의원",
        "hurl": "",
        "lat": 37.6137008136,
        "lon": 127.030530792,
        "highblood": 0,
        "lungCa": 0,
        "stomachCa": 0,
        "liverCa": 0,
        "bowelCa": 0,
        "breastCa": 0,
        "cesarean": 0,
        "antibiotics": 1,
        "injection": 5,
        "diabetes": 0,
        "asthma": 0,
        "dialysis": 0
    },
    {
        "name": "강북연세정형외과의원",
        "hurl": "",
        "lat": 37.6424090714,
        "lon": 127.016275152,
        "highblood": 0,
        "lungCa": 0,
        "stomachCa": 0,
        "liverCa": 0,
        "bowelCa": 0,
        "breastCa": 0,
        "cesarean": 0,
        "antibiotics": 0,
        "injection": 4,
        "diabetes": 0,
        "asthma": 0,
        "dialysis": 0
    },
    {
        "name": "강북제일항외과의원",
        "hurl": "http://www.7js.co.kr/",
        "lat": 37.6391384583,
        "lon": 127.026444264,
        "highblood": 0,
        "lungCa": 0,
        "stomachCa": 0,
        "liverCa": 0,
        "bowelCa": 0,
        "breastCa": 0,
        "cesarean": 0,
        "antibiotics": 0,
        "injection": 3,
        "diabetes": 0,
        "asthma": 0,
        "dialysis": 0
    },
    {
        "name": "강원석내과의원",
        "hurl": "",
        "lat": 37.6200425147,
        "lon": 127.019441869,
        "highblood": "양호",
        "lungCa": 0,
        "stomachCa": 0,
        "liverCa": 0,
        "bowelCa": 0,
        "breastCa": 0,
        "cesarean": 0,
        "antibiotics": 2,
        "injection": 3,
        "diabetes": 0,
        "asthma": 0,
        "dialysis": 0
    }
][
    {
        "name": "건강한정형외과의원",
        "hurl": "",
        "lat": 37.6151174099,
        "lon": 127.029579956,
        "highblood": 0,
        "lungCa": 0,
        "stomachCa": 0,
        "liverCa": 0,
        "bowelCa": 0,
        "breastCa": 0,
        "cesarean": 0,
        "antibiotics": 0,
        "injection": 2,
        "diabetes": 0,
        "asthma": 0,
        "dialysis": 0
    },
    {
        "name": "구이비인후과의원",
        "hurl": "",
        "lat": 37.6287049352,
        "lon": 127.039694835,
        "highblood": 0,
        "lungCa": 0,
        "stomachCa": 0,
        "liverCa": 0,
        "bowelCa": 0,
        "breastCa": 0,
        "cesarean": 0,
        "antibiotics": 5,
        "injection": 2,
        "diabetes": 0,
        "asthma": 0,
        "dialysis": 0
    },
    {
        "name": "길맨비뇨기과의원",
        "hurl": "http://www.gilman.co.kr/sub/sub_list_03.php",
        "lat": 37.6378701753,
        "lon": 127.025052511,
        "highblood": 0,
        "lungCa": 0,
        "stomachCa": 0,
        "liverCa": 0,
        "bowelCa": 0,
        "breastCa": 0,
        "cesarean": 0,
        "antibiotics": 0,
        "injection": 1,
        "diabetes": 0,
        "asthma": 0,
        "dialysis": 0
    }
][
    {
        "name": "김영상의학과의원",
        "hurl": "",
        "lat": 37.6383385727,
        "lon": 127.02558744,
        "highblood": 0,
        "lungCa": 0,
        "stomachCa": 0,
        "liverCa": 0,
        "bowelCa": 0,
        "breastCa": 0,
        "cesarean": 0,
        "antibiotics": 0,
        "injection": 0,
        "diabetes": 0,
        "asthma": 0,
        "dialysis": 0
    },
    {
        "name": "김영우정신건강의학과의원",
        "hurl": "",
        "lat": 37.636936954,
        "lon": 127.024095973,
        "highblood": 0,
        "lungCa": 0,
        "stomachCa": 0,
        "liverCa": 0,
        "bowelCa": 0,
        "breastCa": 0,
        "cesarean": 0,
        "antibiotics": 0,
        "injection": 0,
        "diabetes": 0,
        "asthma": 0,
        "dialysis": 0
    },
    {
        "name": "김형건내과의원",
        "hurl": "http://www.khgjoseph.com",
        "lat": 37.6428223602,
        "lon": 127.023227685,
        "highblood": 0,
        "lungCa": 0,
        "stomachCa": 0,
        "liverCa": 0,
        "bowelCa": 0,
        "breastCa": 0,
        "cesarean": 0,
        "antibiotics": 0,
        "injection": 2,
        "diabetes": 0,
        "asthma": 0,
        "dialysis": 0
    },
    {
        "name": "나눔의원",
        "hurl": "",
        "lat": 37.6159351,
        "lon": 127.0362457,
        "highblood": 0,
        "lungCa": 0,
        "stomachCa": 0,
        "liverCa": 0,
        "bowelCa": 0,
        "breastCa": 0,
        "cesarean": 0,
        "antibiotics": 4,
        "injection": 3,
        "diabetes": "양호",
        "asthma": "양호",
        "dialysis": 0
    },
    {
        "name": "내일내과의원",
        "hurl": "",
        "lat": 37.619328711,
        "lon": 127.020742024,
        "highblood": "양호",
        "lungCa": 0,
        "stomachCa": 0,
        "liverCa": 0,
        "bowelCa": 0,
        "breastCa": 0,
        "cesarean": 0,
        "antibiotics": 3,
        "injection": 3,
        "diabetes": 0,
        "asthma": 0,
        "dialysis": 0
    }
][
    {
        "name": "넘버원마취통증의학과의원",
        "hurl": "",
        "lat": 37.6313615744,
        "lon": 127.024488416,
        "highblood": 0,
        "lungCa": 0,
        "stomachCa": 0,
        "liverCa": 0,
        "bowelCa": 0,
        "breastCa": 0,
        "cesarean": 0,
        "antibiotics": 0,
        "injection": 1,
        "diabetes": 0,
        "asthma": 0,
        "dialysis": 0
    },
    {
        "name": "다나이비인후과의원",
        "hurl": "",
        "lat": 37.6367926356,
        "lon": 127.024870875,
        "highblood": 0,
        "lungCa": 0,
        "stomachCa": 0,
        "liverCa": 0,
        "bowelCa": 0,
        "breastCa": 0,
        "cesarean": 0,
        "antibiotics": 1,
        "injection": 4,
        "diabetes": 0,
        "asthma": 0,
        "dialysis": 0
    },
    {
        "name": "다예의원",
        "hurl": "",
        "lat": 37.571584,
        "lon": 127.0068638,
        "highblood": 0,
        "lungCa": 0,
        "stomachCa": 0,
        "liverCa": 0,
        "bowelCa": 0,
        "breastCa": 0,
        "cesarean": 0,
        "antibiotics": 0,
        "injection": 4,
        "diabetes": 0,
        "asthma": 0,
        "dialysis": 0
    },
    {
        "name": "닥터맘소아청소년과의원",
        "hurl": "http://www.dr-mom.net",
        "lat": 37.617977533,
        "lon": 127.01893389,
        "highblood": 0,
        "lungCa": 0,
        "stomachCa": 0,
        "liverCa": 0,
        "bowelCa": 0,
        "breastCa": 0,
        "cesarean": 0,
        "antibiotics": 2,
        "injection": 1,
        "diabetes": 0,
        "asthma": 0,
        "dialysis": 0
    }
][
    {
        "name": "동서제일의원",
        "hurl": "",
        "lat": 37.6201436192,
        "lon": 127.018227627,
        "highblood": 0,
        "lungCa": 0,
        "stomachCa": 0,
        "liverCa": 0,
        "bowelCa": 0,
        "breastCa": 0,
        "cesarean": 0,
        "antibiotics": 1,
        "injection": 3,
        "diabetes": 0,
        "asthma": 0,
        "dialysis": 0
    },
    {
        "name": "동서통합의원",
        "hurl": "http://www.homemedi.co.kr/soohyi",
        "lat": 37.641387574,
        "lon": 127.025266703,
        "highblood": 0,
        "lungCa": 0,
        "stomachCa": 0,
        "liverCa": 0,
        "bowelCa": 0,
        "breastCa": 0,
        "cesarean": 0,
        "antibiotics": 1,
        "injection": 2,
        "diabetes": 0,
        "asthma": 0,
        "dialysis": 0
    },
    {
        "name": "라르떼의원",
        "hurl": "http://larte.kr/",
        "lat": 37.6365296106,
        "lon": 127.024571685,
        "highblood": 0,
        "lungCa": 0,
        "stomachCa": 0,
        "liverCa": 0,
        "bowelCa": 0,
        "breastCa": 0,
        "cesarean": 0,
        "antibiotics": 0,
        "injection": 1,
        "diabetes": 0,
        "asthma": 0,
        "dialysis": 0
    },
    {
        "name": "루비의원",
        "hurl": "",
        "lat": 37.6258974444,
        "lon": 127.027001441,
        "highblood": 0,
        "lungCa": 0,
        "stomachCa": 0,
        "liverCa": 0,
        "bowelCa": 0,
        "breastCa": 0,
        "cesarean": 0,
        "antibiotics": 0,
        "injection": 3,
        "diabetes": 0,
        "asthma": 0,
        "dialysis": 0
    },
    {
        "name": "리앤여성의원",
        "hurl": "",
        "lat": 37.6356648154,
        "lon": 127.02383725,
        "highblood": 0,
        "lungCa": 0,
        "stomachCa": 0,
        "liverCa": 0,
        "bowelCa": 0,
        "breastCa": 0,
        "cesarean": 0,
        "antibiotics": 0,
        "injection": 3,
        "diabetes": 0,
        "asthma": 0,
        "dialysis": 0
    },
    {
        "name": "마디신경외과의원",
        "hurl": "",
        "lat": 37.6116284878,
        "lon": 127.03072928,
        "highblood": 0,
        "lungCa": 0,
        "stomachCa": 0,
        "liverCa": 0,
        "bowelCa": 0,
        "breastCa": 0,
        "cesarean": 0,
        "antibiotics": 0,
        "injection": 2,
        "diabetes": 0,
        "asthma": 0,
        "dialysis": 0
    },
    {
        "name": "마음벗김종범정신과의원",
        "hurl": "",
        "lat": 37.6375531022,
        "lon": 127.024703448,
        "highblood": 0,
        "lungCa": 0,
        "stomachCa": 0,
        "liverCa": 0,
        "bowelCa": 0,
        "breastCa": 0,
        "cesarean": 0,
        "antibiotics": 0,
        "injection": 0,
        "diabetes": 0,
        "asthma": 0,
        "dialysis": 0
    }
][
    {
        "name": "맑은하늘마취통증의학과의원",
        "hurl": "",
        "lat": 37.6475105,
        "lon": 127.0143398,
        "highblood": 0,
        "lungCa": 0,
        "stomachCa": 0,
        "liverCa": 0,
        "bowelCa": 0,
        "breastCa": 0,
        "cesarean": 0,
        "antibiotics": 0,
        "injection": 1,
        "diabetes": 0,
        "asthma": 0,
        "dialysis": 0
    },
    {
        "name": "메트로내과의원",
        "hurl": "",
        "lat": 37.6122411732,
        "lon": 127.030679698,
        "highblood": "양호",
        "lungCa": 0,
        "stomachCa": 0,
        "liverCa": 0,
        "bowelCa": 0,
        "breastCa": 0,
        "cesarean": 0,
        "antibiotics": 2,
        "injection": 2,
        "diabetes": "양호",
        "asthma": "양호",
        "dialysis": 3
    },
    {
        "name": "문산부인과의원",
        "hurl": "",
        "lat": 37.6371279,
        "lon": 127.0251912,
        "highblood": 0,
        "lungCa": 0,
        "stomachCa": 0,
        "liverCa": 0,
        "bowelCa": 0,
        "breastCa": 0,
        "cesarean": 0,
        "antibiotics": 0,
        "injection": 5,
        "diabetes": 0,
        "asthma": 0,
        "dialysis": 0
    },
    {
        "name": "미래소아청소년과의원",
        "hurl": "http://ansoa.mdrline.net/Module/DoctorInfo/DoctorInfo.asp",
        "lat": 37.6255171806,
        "lon": 127.017748633,
        "highblood": 0,
        "lungCa": 0,
        "stomachCa": 0,
        "liverCa": 0,
        "bowelCa": 0,
        "breastCa": 0,
        "cesarean": 0,
        "antibiotics": 1,
        "injection": 1,
        "diabetes": 0,
        "asthma": 0,
        "dialysis": 0
    }
][
    {
        "name": "미래안과의원",
        "hurl": "",
        "lat": 37.6383385727,
        "lon": 127.02558744,
        "highblood": 0,
        "lungCa": 0,
        "stomachCa": 0,
        "liverCa": 0,
        "bowelCa": 0,
        "breastCa": 0,
        "cesarean": 0,
        "antibiotics": 0,
        "injection": 2,
        "diabetes": 0,
        "asthma": 0,
        "dialysis": 0
    },
    {
        "name": "미아중앙의원",
        "hurl": "",
        "lat": 37.6251320269,
        "lon": 127.032479333,
        "highblood": "양호",
        "lungCa": 0,
        "stomachCa": 0,
        "liverCa": 0,
        "bowelCa": 0,
        "breastCa": 0,
        "cesarean": 0,
        "antibiotics": 0,
        "injection": 3,
        "diabetes": "양호",
        "asthma": 0,
        "dialysis": 0
    },
    {
        "name": "미애로여성의원",
        "hurl": "http://www.miaerosu.com/",
        "lat": 37.6373510942,
        "lon": 127.025582569,
        "highblood": 0,
        "lungCa": 0,
        "stomachCa": 0,
        "liverCa": 0,
        "bowelCa": 0,
        "breastCa": 0,
        "cesarean": 0,
        "antibiotics": 0,
        "injection": 2,
        "diabetes": 0,
        "asthma": 0,
        "dialysis": 0
    },
    {
        "name": "미앤미의원",
        "hurl": "http://www.y365.co.kr",
        "lat": 37.6367926356,
        "lon": 127.024870875,
        "highblood": 0,
        "lungCa": 0,
        "stomachCa": 0,
        "liverCa": 0,
        "bowelCa": 0,
        "breastCa": 0,
        "cesarean": 0,
        "antibiotics": 0,
        "injection": 1,
        "diabetes": 0,
        "asthma": 0,
        "dialysis": 0
    },
    {
        "name": "박내과의원",
        "hurl": "",
        "lat": 37.6380250983,
        "lon": 127.025270097,
        "highblood": 0,
        "lungCa": 0,
        "stomachCa": 0,
        "liverCa": 0,
        "bowelCa": 0,
        "breastCa": 0,
        "cesarean": 0,
        "antibiotics": 5,
        "injection": 5,
        "diabetes": 0,
        "asthma": 0,
        "dialysis": 0
    },
    {
        "name": "박순용정형외과의원",
        "hurl": "",
        "lat": 37.6428478164,
        "lon": 127.022035716,
        "highblood": 0,
        "lungCa": 0,
        "stomachCa": 0,
        "liverCa": 0,
        "bowelCa": 0,
        "breastCa": 0,
        "cesarean": 0,
        "antibiotics": 0,
        "injection": 4,
        "diabetes": 0,
        "asthma": 0,
        "dialysis": 0
    }
][
    {
        "name": "밝은연세안과의원",
        "hurl": "",
        "lat": 37.6367926356,
        "lon": 127.024870875,
        "highblood": 0,
        "lungCa": 0,
        "stomachCa": 0,
        "liverCa": 0,
        "bowelCa": 0,
        "breastCa": 0,
        "cesarean": 0,
        "antibiotics": 0,
        "injection": 1,
        "diabetes": 0,
        "asthma": 0,
        "dialysis": 0
    },
    {
        "name": "배용표내과의원",
        "hurl": "",
        "lat": 37.6410178328,
        "lon": 127.017113291,
        "highblood": 0,
        "lungCa": 0,
        "stomachCa": 0,
        "liverCa": 0,
        "bowelCa": 0,
        "breastCa": 0,
        "cesarean": 0,
        "antibiotics": 1,
        "injection": 2,
        "diabetes": 0,
        "asthma": 0,
        "dialysis": 0
    },
    {
        "name": "보아스이비인후과의원",
        "hurl": "http://www.homemedi.co.kr/boazsuyu",
        "lat": 37.6311418537,
        "lon": 127.023903778,
        "highblood": 0,
        "lungCa": 0,
        "stomachCa": 0,
        "liverCa": 0,
        "bowelCa": 0,
        "breastCa": 0,
        "cesarean": 0,
        "antibiotics": 4,
        "injection": 1,
        "diabetes": 0,
        "asthma": "양호",
        "dialysis": 0
    },
    {
        "name": "북부성모의원",
        "hurl": "",
        "lat": 37.6469462621,
        "lon": 127.017427393,
        "highblood": 0,
        "lungCa": 0,
        "stomachCa": 0,
        "liverCa": 0,
        "bowelCa": 0,
        "breastCa": 0,
        "cesarean": 0,
        "antibiotics": 4,
        "injection": 3,
        "diabetes": "양호",
        "asthma": 0,
        "dialysis": 0
    }
][
    {
        "name": "비해피이상양의원",
        "hurl": "",
        "lat": 37.6125908202,
        "lon": 127.0304352,
        "highblood": 0,
        "lungCa": 0,
        "stomachCa": 0,
        "liverCa": 0,
        "bowelCa": 0,
        "breastCa": 0,
        "cesarean": 0,
        "antibiotics": 0,
        "injection": 3,
        "diabetes": 0,
        "asthma": 0,
        "dialysis": 0
    },
    {
        "name": "사회복지법인상록재단금강산의원",
        "hurl": "",
        "lat": 37.6345633081,
        "lon": 127.033348998,
        "highblood": 0,
        "lungCa": 0,
        "stomachCa": 0,
        "liverCa": 0,
        "bowelCa": 0,
        "breastCa": 0,
        "cesarean": 0,
        "antibiotics": 2,
        "injection": 2,
        "diabetes": 0,
        "asthma": 0,
        "dialysis": 0
    },
    {
        "name": "삼성드림소아청소년과의원",
        "hurl": "",
        "lat": 37.6289789564,
        "lon": 127.039332469,
        "highblood": 0,
        "lungCa": 0,
        "stomachCa": 0,
        "liverCa": 0,
        "bowelCa": 0,
        "breastCa": 0,
        "cesarean": 0,
        "antibiotics": 1,
        "injection": 2,
        "diabetes": 0,
        "asthma": 0,
        "dialysis": 0
    },
    {
        "name": "삼양박가정의원",
        "hurl": "",
        "lat": 37.6183692104,
        "lon": 127.025113928,
        "highblood": 0,
        "lungCa": 0,
        "stomachCa": 0,
        "liverCa": 0,
        "bowelCa": 0,
        "breastCa": 0,
        "cesarean": 0,
        "antibiotics": 1,
        "injection": 2,
        "diabetes": "양호",
        "asthma": 0,
        "dialysis": 0
    },
    {
        "name": "삼양제일내과의원",
        "hurl": "",
        "lat": 37.6249908385,
        "lon": 127.018817859,
        "highblood": "양호",
        "lungCa": 0,
        "stomachCa": 0,
        "liverCa": 0,
        "bowelCa": 0,
        "breastCa": 0,
        "cesarean": 0,
        "antibiotics": 5,
        "injection": 3,
        "diabetes": "양호",
        "asthma": "양호",
        "dialysis": 0
    }
][
    {
        "name": "석비뇨기과의원",
        "hurl": "",
        "lat": 37.6183916161,
        "lon": 127.021122347,
        "highblood": 0,
        "lungCa": 0,
        "stomachCa": 0,
        "liverCa": 0,
        "bowelCa": 0,
        "breastCa": 0,
        "cesarean": 0,
        "antibiotics": 0,
        "injection": 5,
        "diabetes": 0,
        "asthma": 0,
        "dialysis": 0
    },
    {
        "name": "선내과의원",
        "hurl": "",
        "lat": 37.645122944,
        "lon": 127.015468982,
        "highblood": "양호",
        "lungCa": 0,
        "stomachCa": 0,
        "liverCa": 0,
        "bowelCa": 0,
        "breastCa": 0,
        "cesarean": 0,
        "antibiotics": 3,
        "injection": 4,
        "diabetes": 0,
        "asthma": 0,
        "dialysis": 0
    }
][
    {
        "name": "성모더원신경외과의원",
        "hurl": "",
        "lat": 37.6280566256,
        "lon": 127.0251126558,
        "highblood": 0,
        "lungCa": 0,
        "stomachCa": 0,
        "liverCa": 0,
        "bowelCa": 0,
        "breastCa": 0,
        "cesarean": 0,
        "antibiotics": 0,
        "injection": 4,
        "diabetes": 0,
        "asthma": 0,
        "dialysis": 0
    },
    {
        "name": "송림외과의원",
        "hurl": "",
        "lat": 37.6445198373,
        "lon": 127.023110373,
        "highblood": 0,
        "lungCa": 0,
        "stomachCa": 0,
        "liverCa": 0,
        "bowelCa": 0,
        "breastCa": 0,
        "cesarean": 0,
        "antibiotics": 1,
        "injection": 4,
        "diabetes": "양호",
        "asthma": 0,
        "dialysis": 0
    },
    {
        "name": "수민의원",
        "hurl": "",
        "lat": 37.6364774286,
        "lon": 127.031799962,
        "highblood": "양호",
        "lungCa": 0,
        "stomachCa": 0,
        "liverCa": 0,
        "bowelCa": 0,
        "breastCa": 0,
        "cesarean": 0,
        "antibiotics": 5,
        "injection": 4,
        "diabetes": 0,
        "asthma": 0,
        "dialysis": 0
    },
    {
        "name": "수유마취통증의학과의원",
        "hurl": "",
        "lat": 37.6373225235,
        "lon": 127.024349883,
        "highblood": 0,
        "lungCa": 0,
        "stomachCa": 0,
        "liverCa": 0,
        "bowelCa": 0,
        "breastCa": 0,
        "cesarean": 0,
        "antibiotics": 0,
        "injection": 1,
        "diabetes": 0,
        "asthma": 0,
        "dialysis": 0
    }
][
    {
        "name": "수유정형외과의원",
        "hurl": "",
        "lat": 37.6348254434,
        "lon": 127.022056005,
        "highblood": 0,
        "lungCa": 0,
        "stomachCa": 0,
        "liverCa": 0,
        "bowelCa": 0,
        "breastCa": 0,
        "cesarean": 0,
        "antibiotics": 0,
        "injection": 4,
        "diabetes": 0,
        "asthma": 0,
        "dialysis": 0
    },
    {
        "name": "스마일내과의원",
        "hurl": "",
        "lat": 37.6421875,
        "lon": 127.0162949,
        "highblood": "양호",
        "lungCa": 0,
        "stomachCa": 0,
        "liverCa": 0,
        "bowelCa": 0,
        "breastCa": 0,
        "cesarean": 0,
        "antibiotics": 3,
        "injection": 4,
        "diabetes": 0,
        "asthma": 0,
        "dialysis": 0
    },
    {
        "name": "시원내과의원",
        "hurl": "",
        "lat": 37.6280566256,
        "lon": 127.025112656,
        "highblood": 0,
        "lungCa": 0,
        "stomachCa": 0,
        "liverCa": 0,
        "bowelCa": 0,
        "breastCa": 0,
        "cesarean": 0,
        "antibiotics": 0,
        "injection": 5,
        "diabetes": 0,
        "asthma": 0,
        "dialysis": 0
    },
    {
        "name": "신내과의원",
        "hurl": "",
        "lat": 37.6135304056,
        "lon": 127.034254754,
        "highblood": "양호",
        "lungCa": 0,
        "stomachCa": 0,
        "liverCa": 0,
        "bowelCa": 0,
        "breastCa": 0,
        "cesarean": 0,
        "antibiotics": 2,
        "injection": 3,
        "diabetes": "양호",
        "asthma": 0,
        "dialysis": 0
    },
    {
        "name": "신일내과의원",
        "hurl": "",
        "lat": 37.6276024965,
        "lon": 127.025262036,
        "highblood": 0,
        "lungCa": 0,
        "stomachCa": 0,
        "liverCa": 0,
        "bowelCa": 0,
        "breastCa": 0,
        "cesarean": 0,
        "antibiotics": 0,
        "injection": 2,
        "diabetes": 0,
        "asthma": 0,
        "dialysis": 0
    },
    {
        "name": "신통정형외과의원",
        "hurl": "",
        "lat": 37.6317075662,
        "lon": 127.024425088,
        "highblood": 0,
        "lungCa": 0,
        "stomachCa": 0,
        "liverCa": 0,
        "bowelCa": 0,
        "breastCa": 0,
        "cesarean": 0,
        "antibiotics": 0,
        "injection": 5,
        "diabetes": 0,
        "asthma": 0,
        "dialysis": 0
    },
    {
        "name": "아가엄마산부인과의원",
        "hurl": "http://www.agaumma.co.kr",
        "lat": 37.640129583,
        "lon": 127.0262588,
        "highblood": 0,
        "lungCa": 0,
        "stomachCa": 0,
        "liverCa": 0,
        "bowelCa": 0,
        "breastCa": 0,
        "cesarean": 5,
        "antibiotics": 4,
        "injection": 3,
        "diabetes": 0,
        "asthma": 0,
        "dialysis": 0
    }
][
    {
        "name": "연세견우정형외과의원",
        "hurl": "http://www.shoulderfriends.co.kr",
        "lat": 37.6261426095,
        "lon": 127.026575595,
        "highblood": 0,
        "lungCa": 0,
        "stomachCa": 0,
        "liverCa": 0,
        "bowelCa": 0,
        "breastCa": 0,
        "cesarean": 0,
        "antibiotics": 0,
        "injection": 3,
        "diabetes": 0,
        "asthma": 0,
        "dialysis": 0
    },
    {
        "name": "연세백세내과의원",
        "hurl": "",
        "lat": 37.6313615744,
        "lon": 127.024488416,
        "highblood": 0,
        "lungCa": 0,
        "stomachCa": 0,
        "liverCa": 0,
        "bowelCa": 0,
        "breastCa": 0,
        "cesarean": 0,
        "antibiotics": 2,
        "injection": 4,
        "diabetes": 0,
        "asthma": "양호",
        "dialysis": 2
    },
    {
        "name": "연세비뇨기과의원",
        "hurl": "",
        "lat": 37.6201527,
        "lon": 127.0187184,
        "highblood": 0,
        "lungCa": 0,
        "stomachCa": 0,
        "liverCa": 0,
        "bowelCa": 0,
        "breastCa": 0,
        "cesarean": 0,
        "antibiotics": 0,
        "injection": 3,
        "diabetes": 0,
        "asthma": 0,
        "dialysis": 0
    }
][
    {
        "name": "연세이비인후과의원",
        "hurl": "",
        "lat": 37.6368216657,
        "lon": 127.023910129,
        "highblood": 0,
        "lungCa": 0,
        "stomachCa": 0,
        "liverCa": 0,
        "bowelCa": 0,
        "breastCa": 0,
        "cesarean": 0,
        "antibiotics": 1,
        "injection": 3,
        "diabetes": 0,
        "asthma": 0,
        "dialysis": 0
    },
    {
        "name": "연진내과의원",
        "hurl": "",
        "lat": 37.6344081253,
        "lon": 127.017664645,
        "highblood": "양호",
        "lungCa": 0,
        "stomachCa": 0,
        "liverCa": 0,
        "bowelCa": 0,
        "breastCa": 0,
        "cesarean": 0,
        "antibiotics": 0,
        "injection": 4,
        "diabetes": 0,
        "asthma": 0,
        "dialysis": 0
    },
    {
        "name": "예사랑소아청소년과의원",
        "hurl": "",
        "lat": 37.6185505752,
        "lon": 127.018847951,
        "highblood": 0,
        "lungCa": 0,
        "stomachCa": 0,
        "liverCa": 0,
        "bowelCa": 0,
        "breastCa": 0,
        "cesarean": 0,
        "antibiotics": 3,
        "injection": 1,
        "diabetes": 0,
        "asthma": 0,
        "dialysis": 0
    },
    {
        "name": "예일소아청소년과의원",
        "hurl": "",
        "lat": 37.6379338117,
        "lon": 127.030314108,
        "highblood": "양호",
        "lungCa": 0,
        "stomachCa": 0,
        "liverCa": 0,
        "bowelCa": 0,
        "breastCa": 0,
        "cesarean": 0,
        "antibiotics": 2,
        "injection": 2,
        "diabetes": 0,
        "asthma": "양호",
        "dialysis": 0
    },
    {
        "name": "예코이비인후과의원",
        "hurl": "http://www.yekoclinic.com",
        "lat": 37.6261426095,
        "lon": 127.026575595,
        "highblood": 0,
        "lungCa": 0,
        "stomachCa": 0,
        "liverCa": 0,
        "bowelCa": 0,
        "breastCa": 0,
        "cesarean": 0,
        "antibiotics": 3,
        "injection": 5,
        "diabetes": 0,
        "asthma": 0,
        "dialysis": 0
    },
    {
        "name": "오이비인후과의원",
        "hurl": "",
        "lat": 37.6149227793,
        "lon": 127.029647837,
        "highblood": 0,
        "lungCa": 0,
        "stomachCa": 0,
        "liverCa": 0,
        "bowelCa": 0,
        "breastCa": 0,
        "cesarean": 0,
        "antibiotics": 4,
        "injection": 1,
        "diabetes": 0,
        "asthma": 0,
        "dialysis": 0
    },
    {
        "name": "용산마취통증의학과의원",
        "hurl": "",
        "lat": 37.6201545655,
        "lon": 127.017335051,
        "highblood": 0,
        "lungCa": 0,
        "stomachCa": 0,
        "liverCa": 0,
        "bowelCa": 0,
        "breastCa": 0,
        "cesarean": 0,
        "antibiotics": 1,
        "injection": 2,
        "diabetes": 0,
        "asthma": 0,
        "dialysis": 0
    },
    {
        "name": "용소아청소년과의원",
        "hurl": "",
        "lat": 37.6441991391,
        "lon": 127.022842867,
        "highblood": 0,
        "lungCa": 0,
        "stomachCa": 0,
        "liverCa": 0,
        "bowelCa": 0,
        "breastCa": 0,
        "cesarean": 0,
        "antibiotics": 1,
        "injection": 1,
        "diabetes": 0,
        "asthma": 0,
        "dialysis": 0
    }
][
    {
        "name": "우리맑은의원",
        "hurl": "http://www.wooriskin.com/",
        "lat": 37.6261426095,
        "lon": 127.026575595,
        "highblood": 0,
        "lungCa": 0,
        "stomachCa": 0,
        "liverCa": 0,
        "bowelCa": 0,
        "breastCa": 0,
        "cesarean": 0,
        "antibiotics": 0,
        "injection": 2,
        "diabetes": 0,
        "asthma": 0,
        "dialysis": 0
    },
    {
        "name": "우리이웃의원",
        "hurl": "http://",
        "lat": 37.6110438615,
        "lon": 127.033610311,
        "highblood": 0,
        "lungCa": 0,
        "stomachCa": 0,
        "liverCa": 0,
        "bowelCa": 0,
        "breastCa": 0,
        "cesarean": 0,
        "antibiotics": 0,
        "injection": 5,
        "diabetes": 0,
        "asthma": 0,
        "dialysis": 0
    },
    {
        "name": "우이한솔의원",
        "hurl": "",
        "lat": 37.6490874379,
        "lon": 127.014146282,
        "highblood": 0,
        "lungCa": 0,
        "stomachCa": 0,
        "liverCa": 0,
        "bowelCa": 0,
        "breastCa": 0,
        "cesarean": 0,
        "antibiotics": 1,
        "injection": 5,
        "diabetes": 0,
        "asthma": 0,
        "dialysis": 0
    },
    {
        "name": "우창하안과의원",
        "hurl": "",
        "lat": 37.6399383491,
        "lon": 127.027251253,
        "highblood": 0,
        "lungCa": 0,
        "stomachCa": 0,
        "liverCa": 0,
        "bowelCa": 0,
        "breastCa": 0,
        "cesarean": 0,
        "antibiotics": 0,
        "injection": 1,
        "diabetes": 0,
        "asthma": 0,
        "dialysis": 0
    },
    {
        "name": "월곡정형외과의원",
        "hurl": "",
        "lat": 37.6102507,
        "lon": 127.032126,
        "highblood": 0,
        "lungCa": 0,
        "stomachCa": 0,
        "liverCa": 0,
        "bowelCa": 0,
        "breastCa": 0,
        "cesarean": 0,
        "antibiotics": 0,
        "injection": 5,
        "diabetes": 0,
        "asthma": 0,
        "dialysis": 0
    },
    {
        "name": "유비뇨기과의원",
        "hurl": "",
        "lat": 37.6386664649,
        "lon": 127.025891195,
        "highblood": 0,
        "lungCa": 0,
        "stomachCa": 0,
        "liverCa": 0,
        "bowelCa": 0,
        "breastCa": 0,
        "cesarean": 0,
        "antibiotics": 0,
        "injection": 5,
        "diabetes": 0,
        "asthma": 0,
        "dialysis": 0
    },
    {
        "name": "유성현의원",
        "hurl": "",
        "lat": 37.6216832028,
        "lon": 127.012953979,
        "highblood": 0,
        "lungCa": 0,
        "stomachCa": 0,
        "liverCa": 0,
        "bowelCa": 0,
        "breastCa": 0,
        "cesarean": 0,
        "antibiotics": 1,
        "injection": 1,
        "diabetes": 0,
        "asthma": 0,
        "dialysis": 0
    }
][
    {
        "name": "윤형란내과의원",
        "hurl": "",
        "lat": 37.6236414104,
        "lon": 127.026837507,
        "highblood": 0,
        "lungCa": 0,
        "stomachCa": 0,
        "liverCa": 0,
        "bowelCa": 0,
        "breastCa": 0,
        "cesarean": 0,
        "antibiotics": 1,
        "injection": 2,
        "diabetes": "양호",
        "asthma": 0,
        "dialysis": 0
    },
    {
        "name": "으뜸연합의원",
        "hurl": "",
        "lat": 37.6251170991,
        "lon": 127.018034001,
        "highblood": 0,
        "lungCa": 0,
        "stomachCa": 0,
        "liverCa": 0,
        "bowelCa": 0,
        "breastCa": 0,
        "cesarean": 0,
        "antibiotics": 3,
        "injection": 1,
        "diabetes": 0,
        "asthma": 0,
        "dialysis": 0
    },
    {
        "name": "의료법인열린의료재단경의원",
        "hurl": "",
        "lat": 37.6276024965,
        "lon": 127.025262036,
        "highblood": 0,
        "lungCa": 0,
        "stomachCa": 0,
        "liverCa": 0,
        "bowelCa": 0,
        "breastCa": 0,
        "cesarean": 0,
        "antibiotics": 0,
        "injection": 3,
        "diabetes": 0,
        "asthma": 0,
        "dialysis": 2
    },
    {
        "name": "이광언내과의원",
        "hurl": "",
        "lat": 37.6455898961,
        "lon": 127.024642656,
        "highblood": 0,
        "lungCa": 0,
        "stomachCa": 0,
        "liverCa": 0,
        "bowelCa": 0,
        "breastCa": 0,
        "cesarean": 0,
        "antibiotics": 5,
        "injection": 2,
        "diabetes": 0,
        "asthma": 0,
        "dialysis": 0
    },
    {
        "name": "이기영내과의원",
        "hurl": "",
        "lat": 37.6199583,
        "lon": 127.0128396,
        "highblood": "양호",
        "lungCa": 0,
        "stomachCa": 0,
        "liverCa": 0,
        "bowelCa": 0,
        "breastCa": 0,
        "cesarean": 0,
        "antibiotics": 0,
        "injection": 4,
        "diabetes": "양호",
        "asthma": 0,
        "dialysis": 0
    },
    {
        "name": "이명희산부인과의원",
        "hurl": "",
        "lat": 37.6125908202,
        "lon": 127.0304352,
        "highblood": 0,
        "lungCa": 0,
        "stomachCa": 0,
        "liverCa": 0,
        "bowelCa": 0,
        "breastCa": 0,
        "cesarean": 0,
        "antibiotics": 0,
        "injection": 2,
        "diabetes": 0,
        "asthma": 0,
        "dialysis": 0
    }
][
    {
        "name": "이신영의원",
        "hurl": "",
        "lat": 37.6348492244,
        "lon": 127.028772061,
        "highblood": 0,
        "lungCa": 0,
        "stomachCa": 0,
        "liverCa": 0,
        "bowelCa": 0,
        "breastCa": 0,
        "cesarean": 0,
        "antibiotics": 0,
        "injection": 1,
        "diabetes": 0,
        "asthma": 0,
        "dialysis": 0
    },
    {
        "name": "이윤식이비인후과의원",
        "hurl": "http://www.ient.co.kr/",
        "lat": 37.6258974444,
        "lon": 127.027001441,
        "highblood": 0,
        "lungCa": 0,
        "stomachCa": 0,
        "liverCa": 0,
        "bowelCa": 0,
        "breastCa": 0,
        "cesarean": 0,
        "antibiotics": 4,
        "injection": 4,
        "diabetes": 0,
        "asthma": 0,
        "dialysis": 0
    },
    {
        "name": "이이비인후과의원",
        "hurl": "",
        "lat": 37.6422900774,
        "lon": 127.016732878,
        "highblood": 0,
        "lungCa": 0,
        "stomachCa": 0,
        "liverCa": 0,
        "bowelCa": 0,
        "breastCa": 0,
        "cesarean": 0,
        "antibiotics": 4,
        "injection": 1,
        "diabetes": 0,
        "asthma": 0,
        "dialysis": 0
    },
    {
        "name": "인화의원",
        "hurl": "",
        "lat": 37.642698219,
        "lon": 127.030311512,
        "highblood": "양호",
        "lungCa": 0,
        "stomachCa": 0,
        "liverCa": 0,
        "bowelCa": 0,
        "breastCa": 0,
        "cesarean": 0,
        "antibiotics": 5,
        "injection": 5,
        "diabetes": 0,
        "asthma": 0,
        "dialysis": 0
    },
    {
        "name": "자애내과외과의원",
        "hurl": "",
        "lat": 37.6420136687,
        "lon": 127.029531699,
        "highblood": "양호",
        "lungCa": 0,
        "stomachCa": 0,
        "liverCa": 0,
        "bowelCa": 0,
        "breastCa": 0,
        "cesarean": 0,
        "antibiotics": 4,
        "injection": 4,
        "diabetes": "양호",
        "asthma": 0,
        "dialysis": 0
    }
][
    {
        "name": "정마취통증의학과의원",
        "hurl": "",
        "lat": 37.6367926356,
        "lon": 127.024870875,
        "highblood": 0,
        "lungCa": 0,
        "stomachCa": 0,
        "liverCa": 0,
        "bowelCa": 0,
        "breastCa": 0,
        "cesarean": 0,
        "antibiotics": 0,
        "injection": 2,
        "diabetes": 0,
        "asthma": 0,
        "dialysis": 0
    },
    {
        "name": "정소아청소년과의원",
        "hurl": "",
        "lat": 37.6246960608,
        "lon": 127.032071342,
        "highblood": "양호",
        "lungCa": 0,
        "stomachCa": 0,
        "liverCa": 0,
        "bowelCa": 0,
        "breastCa": 0,
        "cesarean": 0,
        "antibiotics": 0,
        "injection": 5,
        "diabetes": 0,
        "asthma": 0,
        "dialysis": 0
    },
    {
        "name": "정연탁의원",
        "hurl": "",
        "lat": 37.6251422445,
        "lon": 127.018564153,
        "highblood": 0,
        "lungCa": 0,
        "stomachCa": 0,
        "liverCa": 0,
        "bowelCa": 0,
        "breastCa": 0,
        "cesarean": 0,
        "antibiotics": 5,
        "injection": 5,
        "diabetes": 0,
        "asthma": 0,
        "dialysis": 0
    },
    {
        "name": "정태시내과의원",
        "hurl": "",
        "lat": 37.6169267,
        "lon": 127.0294989,
        "highblood": 0,
        "lungCa": 0,
        "stomachCa": 0,
        "liverCa": 0,
        "bowelCa": 0,
        "breastCa": 0,
        "cesarean": 0,
        "antibiotics": 0,
        "injection": 3,
        "diabetes": 0,
        "asthma": 0,
        "dialysis": 2
    },
    {
        "name": "제이유산부인과의원",
        "hurl": "",
        "lat": 37.6375531022,
        "lon": 127.024703448,
        "highblood": 0,
        "lungCa": 0,
        "stomachCa": 0,
        "liverCa": 0,
        "bowelCa": 0,
        "breastCa": 0,
        "cesarean": 0,
        "antibiotics": 0,
        "injection": 3,
        "diabetes": 0,
        "asthma": 0,
        "dialysis": 0
    },
    {
        "name": "제일성심의원",
        "hurl": "",
        "lat": 37.6331504013,
        "lon": 127.033914822,
        "highblood": 0,
        "lungCa": 0,
        "stomachCa": 0,
        "liverCa": 0,
        "bowelCa": 0,
        "breastCa": 0,
        "cesarean": 0,
        "antibiotics": 1,
        "injection": 5,
        "diabetes": 0,
        "asthma": 0,
        "dialysis": 0
    }
][
    {
        "name": "주영식이비인후과의원",
        "hurl": "",
        "lat": 37.6386664649,
        "lon": 127.025891195,
        "highblood": 0,
        "lungCa": 0,
        "stomachCa": 0,
        "liverCa": 0,
        "bowelCa": 0,
        "breastCa": 0,
        "cesarean": 0,
        "antibiotics": 4,
        "injection": 1,
        "diabetes": 0,
        "asthma": 0,
        "dialysis": 0
    },
    {
        "name": "주한수안과의원",
        "hurl": "",
        "lat": 37.6183916161,
        "lon": 127.021122347,
        "highblood": 0,
        "lungCa": 0,
        "stomachCa": 0,
        "liverCa": 0,
        "bowelCa": 0,
        "breastCa": 0,
        "cesarean": 0,
        "antibiotics": 0,
        "injection": 2,
        "diabetes": 0,
        "asthma": 0,
        "dialysis": 0
    },
    {
        "name": "지안이비인후과의원",
        "hurl": "http://cafe.daum.net/jianotolaryngology",
        "lat": 37.6201527,
        "lon": 127.0187184,
        "highblood": 0,
        "lungCa": 0,
        "stomachCa": 0,
        "liverCa": 0,
        "bowelCa": 0,
        "breastCa": 0,
        "cesarean": 0,
        "antibiotics": 4,
        "injection": 3,
        "diabetes": 0,
        "asthma": 0,
        "dialysis": 0
    },
    {
        "name": "지인소아청소년과의원",
        "hurl": "",
        "lat": 37.6156958563,
        "lon": 127.021139706,
        "highblood": 0,
        "lungCa": 0,
        "stomachCa": 0,
        "liverCa": 0,
        "bowelCa": 0,
        "breastCa": 0,
        "cesarean": 0,
        "antibiotics": 1,
        "injection": 1,
        "diabetes": 0,
        "asthma": 0,
        "dialysis": 0
    },
    {
        "name": "참조은의원",
        "hurl": "http://cjclinic.net",
        "lat": 37.643586574,
        "lon": 127.022298806,
        "highblood": "양호",
        "lungCa": 0,
        "stomachCa": 0,
        "liverCa": 0,
        "bowelCa": 0,
        "breastCa": 0,
        "cesarean": 0,
        "antibiotics": 1,
        "injection": 5,
        "diabetes": "양호",
        "asthma": 0,
        "dialysis": 0
    },
    {
        "name": "최강서울안과의원",
        "hurl": "",
        "lat": 37.6251170991,
        "lon": 127.018034001,
        "highblood": 0,
        "lungCa": 0,
        "stomachCa": 0,
        "liverCa": 0,
        "bowelCa": 0,
        "breastCa": 0,
        "cesarean": 0,
        "antibiotics": 0,
        "injection": 1,
        "diabetes": 0,
        "asthma": 0,
        "dialysis": 0
    },
    {
        "name": "최윤영내과의원",
        "hurl": "",
        "lat": 37.6308482,
        "lon": 127.0176008,
        "highblood": 0,
        "lungCa": 0,
        "stomachCa": 0,
        "liverCa": 0,
        "bowelCa": 0,
        "breastCa": 0,
        "cesarean": 0,
        "antibiotics": 3,
        "injection": 4,
        "diabetes": "양호",
        "asthma": 0,
        "dialysis": 0
    }
][
    {
        "name": "추재학이비인후과의원",
        "hurl": "",
        "lat": 37.6183158,
        "lon": 127.0129522,
        "highblood": 0,
        "lungCa": 0,
        "stomachCa": 0,
        "liverCa": 0,
        "bowelCa": 0,
        "breastCa": 0,
        "cesarean": 0,
        "antibiotics": 4,
        "injection": 2,
        "diabetes": 0,
        "asthma": 0,
        "dialysis": 0
    },
    {
        "name": "코지이비인후과의원",
        "hurl": "",
        "lat": 37.6186082,
        "lon": 127.0189673,
        "highblood": 0,
        "lungCa": 0,
        "stomachCa": 0,
        "liverCa": 0,
        "bowelCa": 0,
        "breastCa": 0,
        "cesarean": 0,
        "antibiotics": 2,
        "injection": 2,
        "diabetes": 0,
        "asthma": 0,
        "dialysis": 0
    },
    {
        "name": "튼튼우리의원",
        "hurl": "",
        "lat": 37.6336277,
        "lon": 127.0173621,
        "highblood": 0,
        "lungCa": 0,
        "stomachCa": 0,
        "liverCa": 0,
        "bowelCa": 0,
        "breastCa": 0,
        "cesarean": 0,
        "antibiotics": 4,
        "injection": 4,
        "diabetes": 0,
        "asthma": 0,
        "dialysis": 0
    },
    {
        "name": "푸른성모이비인후과의원",
        "hurl": "",
        "lat": 37.6450970321,
        "lon": 127.020019476,
        "highblood": 0,
        "lungCa": 0,
        "stomachCa": 0,
        "liverCa": 0,
        "bowelCa": 0,
        "breastCa": 0,
        "cesarean": 0,
        "antibiotics": 3,
        "injection": 2,
        "diabetes": 0,
        "asthma": 0,
        "dialysis": 0
    },
    {
        "name": "푸름외과의원",
        "hurl": "http://epurum.net",
        "lat": 37.6116284878,
        "lon": 127.03072928,
        "highblood": 0,
        "lungCa": 0,
        "stomachCa": 0,
        "liverCa": 0,
        "bowelCa": 0,
        "breastCa": 0,
        "cesarean": 0,
        "antibiotics": 0,
        "injection": 2,
        "diabetes": 0,
        "asthma": 0,
        "dialysis": 0
    },
    {
        "name": "프리뷰의원 미아점",
        "hurl": "",
        "lat": 37.6120681727,
        "lon": 127.0307204,
        "highblood": 0,
        "lungCa": 0,
        "stomachCa": 0,
        "liverCa": 0,
        "bowelCa": 0,
        "breastCa": 0,
        "cesarean": 0,
        "antibiotics": 0,
        "injection": 0,
        "diabetes": 0,
        "asthma": 0,
        "dialysis": 0
    },
    {
        "name": "하나안과의원",
        "hurl": "",
        "lat": 37.6120681727,
        "lon": 127.0307204,
        "highblood": 0,
        "lungCa": 0,
        "stomachCa": 0,
        "liverCa": 0,
        "bowelCa": 0,
        "breastCa": 0,
        "cesarean": 0,
        "antibiotics": 0,
        "injection": 1,
        "diabetes": 0,
        "asthma": 0,
        "dialysis": 0
    }
][
    {
        "name": "하나의원",
        "hurl": "",
        "lat": 37.6206316302,
        "lon": 127.028879853,
        "highblood": 0,
        "lungCa": 0,
        "stomachCa": 0,
        "liverCa": 0,
        "bowelCa": 0,
        "breastCa": 0,
        "cesarean": 0,
        "antibiotics": 0,
        "injection": 3,
        "diabetes": 0,
        "asthma": 0,
        "dialysis": 0
    },
    {
        "name": "하나정형외과의원",
        "hurl": "",
        "lat": 37.6301326679,
        "lon": 127.024302223,
        "highblood": "양호",
        "lungCa": 0,
        "stomachCa": 0,
        "liverCa": 0,
        "bowelCa": 0,
        "breastCa": 0,
        "cesarean": 0,
        "antibiotics": 0,
        "injection": 4,
        "diabetes": 0,
        "asthma": 0,
        "dialysis": 0
    },
    {
        "name": "해드림의원",
        "hurl": "",
        "lat": 37.6358246155,
        "lon": 127.033603343,
        "highblood": 0,
        "lungCa": 0,
        "stomachCa": 0,
        "liverCa": 0,
        "bowelCa": 0,
        "breastCa": 0,
        "cesarean": 0,
        "antibiotics": 5,
        "injection": 4,
        "diabetes": 0,
        "asthma": 0,
        "dialysis": 0
    },
    {
        "name": "해맑은의원",
        "hurl": "",
        "lat": 37.6284743784,
        "lon": 127.039409236,
        "highblood": 0,
        "lungCa": 0,
        "stomachCa": 0,
        "liverCa": 0,
        "bowelCa": 0,
        "breastCa": 0,
        "cesarean": 0,
        "antibiotics": 0,
        "injection": 4,
        "diabetes": 0,
        "asthma": 0,
        "dialysis": 0
    },
    {
        "name": "현대정형외과의원",
        "hurl": "",
        "lat": 37.6261586406,
        "lon": 127.018029722,
        "highblood": 0,
        "lungCa": 0,
        "stomachCa": 0,
        "liverCa": 0,
        "bowelCa": 0,
        "breastCa": 0,
        "cesarean": 0,
        "antibiotics": 0,
        "injection": 3,
        "diabetes": 0,
        "asthma": 0,
        "dialysis": 0
    }
][
    {
        "name": "현의원",
        "hurl": "",
        "lat": 37.6584541261,
        "lon": 127.01352248,
        "highblood": 0,
        "lungCa": 0,
        "stomachCa": 0,
        "liverCa": 0,
        "bowelCa": 0,
        "breastCa": 0,
        "cesarean": 0,
        "antibiotics": 5,
        "injection": 5,
        "diabetes": "양호",
        "asthma": 0,
        "dialysis": 0
    },
    {
        "name": "홍설유내과의원",
        "hurl": "",
        "lat": 37.6284309835,
        "lon": 127.039848755,
        "highblood": "양호",
        "lungCa": 0,
        "stomachCa": 0,
        "liverCa": 0,
        "bowelCa": 0,
        "breastCa": 0,
        "cesarean": 0,
        "antibiotics": 3,
        "injection": 3,
        "diabetes": "양호",
        "asthma": "양호",
        "dialysis": 0
    },
    {
        "name": "홍종서내과의원",
        "hurl": "http://www.hongclinic.net/",
        "lat": 37.6391346193,
        "lon": 127.027473028,
        "highblood": 0,
        "lungCa": 0,
        "stomachCa": 0,
        "liverCa": 0,
        "bowelCa": 0,
        "breastCa": 0,
        "cesarean": 0,
        "antibiotics": 1,
        "injection": 2,
        "diabetes": "양호",
        "asthma": "양호",
        "dialysis": 0
    }
]